[{"id":"IXP_1306","name":"NAPAfrica Johannesburg","Country":"ZAF","latitude":-25.810926148025494,"longitude":28.156095163158298,"customers":"ASN_7020_ZAF,ASN_4134_ZAF,ASN_6083_ZAF,ASN_3257_ZAF,ASN_3300_ZAF,ASN_5713_ZAF,ASN_5713_KEN,ASN_3741_ZAF,ASN_3741_SYC,ASN_714_ZAF,ASN_3356_ZAF,ASN_3356_NGA,ASN_2018_ZAF,ASN_2018_LSO,ASN_3491_ZAF,ASN_3491_ZMB,ASN_3491_TZA,ASN_3491_MOZ,ASN_3491_KEN,ASN_3491_TUN"},{"id":"IXP_616","name":"Internet Exchange Point of Nigeria - Lagos","Country":"NGA","latitude":6.289013286236828,"longitude":3.2615032790045633,"customers":"ASN_3491_ZAF,ASN_3491_ZMB,ASN_3491_TZA,ASN_3491_MOZ,ASN_3491_KEN,ASN_3491_TUN"},{"id":"IXP_1308","name":"NAPAfrica Cape Town","Country":"ZAF","latitude":-34.0409201371972,"longitude":18.614468066778393,"customers":"ASN_3491_ZAF,ASN_3491_ZMB,ASN_3491_TZA,ASN_3491_MOZ,ASN_3491_KEN,ASN_3491_TUN,ASN_2018_ZAF,ASN_2018_LSO,ASN_7020_ZAF,ASN_3356_ZAF,ASN_3356_NGA,ASN_3741_ZAF,ASN_3741_SYC,ASN_5713_ZAF,ASN_5713_KEN"},{"id":"IXP_209","name":"Johannesburg Internet Exchange","Country":"ZAF","latitude":-26.007234210408566,"longitude":28.044622451127342,"customers":"ASN_3741_ZAF,ASN_3741_SYC,ASN_6083_ZAF,ASN_2018_ZAF,ASN_2018_LSO,ASN_4134_ZAF,ASN_7020_ZAF,ASN_715_MUS,ASN_715_ZAF,ASN_715_EGY"},{"id":"IXP_143","name":"Kenya Internet Exchange Point","Country":"KEN","latitude":-1.7359952394584595,"longitude":36.812283998563935,"customers":"ASN_4134_ZAF,ASN_3491_ZAF,ASN_3491_ZMB,ASN_3491_TZA,ASN_3491_MOZ,ASN_3491_KEN,ASN_3491_TUN"},{"id":"IXP_206","name":"Cape Town Internet Exchange","Country":"ZAF","latitude":-33.98649029751656,"longitude":18.745339246731795,"customers":"ASN_3741_ZAF,ASN_3741_SYC,ASN_2018_ZAF,ASN_2018_LSO"},{"id":"IXP_1362","name":"Durban Internet eXchange","Country":"ZAF","latitude":-29.664253684755554,"longitude":30.70667737355676,"customers":"ASN_3741_ZAF,ASN_3741_SYC,ASN_5713_ZAF,ASN_5713_KEN,ASN_2018_ZAF,ASN_2018_LSO"},{"id":"IXP_479","name":"Kinshasa Internet Exchange","Country":"COD","latitude":-4.528463239183468,"longitude":15.098687305395979,"customers":""},{"id":"IXP_248","name":"Uganda Internet Exchange","Country":"UGA","latitude":-0.14692621897977431,"longitude":32.52091540799184,"customers":""},{"id":"IXP_242","name":"TIX Tanzania - Dar es Salaam","Country":"TZA","latitude":-10.500140902230426,"longitude":39.10437801599773,"customers":"ASN_3741_ZAF,ASN_3741_SYC,ASN_6083_ZAF,ASN_2018_ZAF,ASN_2018_LSO,ASN_3491_ZAF,ASN_3491_ZMB,ASN_3491_TZA,ASN_3491_MOZ,ASN_3491_KEN,ASN_3491_TUN,ASN_3300_ZAF,ASN_714_ZAF,ASN_11259_AGO"},{"id":"IXP_93","name":"Ghana Internet Exchange","Country":"GHA","latitude":5.485711223658855,"longitude":-0.19931389450396858,"customers":""},{"id":"IXP_765","name":"Rwanda Internet exchange","Country":"RWA","latitude":-1.9687883419825547,"longitude":30.430980755546898,"customers":""},{"id":"IXP_932","name":"Angola Internet Exchange","Country":"AGO","latitude":-9.358629109900784,"longitude":13.22017668618956,"customers":"ASN_11259_AGO"},{"id":"IXP_59","name":"Cairo Internet Exchange","Country":"EGY","latitude":29.800425420450452,"longitude":31.358157109739118,"customers":""},{"id":"IXP_367","name":"Botswana Internet Exchange","Country":"BWA","latitude":-24.10008286382573,"longitude":26.030902305137385,"customers":""},{"id":"IXP_156","name":"Mauritius Internet Exchange","Country":"MUS","latitude":-20.24435,"longitude":57.49175,"customers":""},{"id":"IXP_547","name":"Zambia Internet Exchange Point","Country":"ZMB","latitude":-15.723384405083651,"longitude":28.104022032668507,"customers":""},{"id":"IXP_606","name":"TIX Tanzania - Arusha","Country":"TZA","latitude":-2.990464432988046,"longitude":36.989258243029276,"customers":""},{"id":"IXP_1312","name":"Sudan Internet Exchange Point","Country":"SDN","latitude":15.301009327044527,"longitude":32.33016477823488,"customers":""},{"id":"IXP_158","name":"Mozambique Internet Exchange","Country":"MOZ","latitude":-25.743944043619287,"longitude":32.51550499825056,"customers":"ASN_3491_ZAF,ASN_3491_ZMB,ASN_3491_TZA,ASN_3491_MOZ,ASN_3491_KEN,ASN_3491_TUN"},{"id":"IXP_1029","name":"Malawi IXP","Country":"MWI","latitude":-16.021143259101844,"longitude":34.77267124951704,"customers":""},{"id":"IXP_593","name":"Middle East Internet eXchange","Country":"EGY","latitude":30.434128022813347,"longitude":31.590785973547575,"customers":""},{"id":"IXP_60","name":"Cairo Regional Internet Exchange","Country":"EGY","latitude":30.077468291045772,"longitude":31.02941782437656,"customers":""},{"id":"IXP_173","name":"Ibadan Internet Exchange","Country":"NGA","latitude":7.558131435469148,"longitude":4.211911749111151,"customers":""},{"id":"IXP_207","name":"Hub","Country":"ZAF","latitude":-33.92876685388038,"longitude":18.944056213586116,"customers":""},{"id":"IXP_208","name":"Grahamstown Internet Exchange","Country":"ZAF","latitude":-31.29398363366024,"longitude":26.50431543027314,"customers":""},{"id":"IXP_210","name":"South African Internet Exchange","Country":"ZAF","latitude":-25.985831893272213,"longitude":28.445904577601716,"customers":""},{"id":"IXP_220","name":"Swaziland Internet Exchange","Country":"SWZ","latitude":-26.097528619855602,"longitude":31.21464081535514,"customers":""},{"id":"IXP_364","name":"Zimbabwe Internet Exchange","Country":"ZWE","latitude":-17.728840608558123,"longitude":30.874716032243416,"customers":""},{"id":"IXP_545","name":"Ponto de Intercambio Internet Angola","Country":"AGO","latitude":-9.355408876224462,"longitude":13.139084792426528,"customers":"ASN_11259_AGO"},{"id":"IXP_546","name":"BurundiX Internet Exchange Point","Country":"BDI","latitude":-4.1849010231007515,"longitude":29.57002428906917,"customers":""},{"id":"IXP_699","name":"Côte d'Ivoire Internet Exchange Point","Country":"CIV","latitude":5.592430310256853,"longitude":-4.121850246283313,"customers":""},{"id":"IXP_1207","name":"AMS-IX East Africa","Country":"KEN","latitude":-3.2616606065550755,"longitude":39.77956113277645,"customers":""},{"id":"IXP_1303","name":"Lesotho Internet Exchange","Country":"LSO","latitude":-29.32924055308882,"longitude":27.468983507170204,"customers":""},{"id":"IXP_1474","name":"Tunisian Internet Exchange Point","Country":"TUN","latitude":36.67694544603973,"longitude":10.52975227064755,"customers":"ASN_2609_TUN"},{"id":"IXP_1887","name":"Gabon Internet Exchange","Country":"GAB","latitude":0.6272856119794299,"longitude":9.575527227980889,"customers":""},{"id":"IXP_1840","name":"NAPAfrica Durban","Country":"ZAF","latitude":-29.959599083345825,"longitude":30.60090393180731,"customers":"ASN_2018_ZAF,ASN_2018_LSO,ASN_3741_ZAF,ASN_3741_SYC,ASN_5713_ZAF,ASN_5713_KEN"},{"id":"IXP_1929","name":"DjIX","Country":"DJI","latitude":11.946609288720081,"longitude":42.61901044523448,"customers":""},{"id":"IXP_1848","name":"ANGONIX","Country":"AGO","latitude":-8.907690578642832,"longitude":13.016313744718868,"customers":"ASN_11259_AGO"},{"id":"IXP_1839","name":"Burkina Faso IXP","Country":"BFA","latitude":12.362552567944187,"longitude":-1.7307773981741184,"customers":""},{"id":"IXP_2075","name":"Asteroid Mombasa","Country":"KEN","latitude":-3.921587956918564,"longitude":39.597688701220065,"customers":""},{"id":"IXP_2055","name":"Douala IXP","Country":"CMR","latitude":4.282984833658482,"longitude":9.647998187984903,"customers":""},{"id":"IXP_1838","name":"Benin IX","Country":"BEN","latitude":6.4565513926894855,"longitude":2.4658834060425385,"customers":""},{"id":"IXP_1811","name":"Serrekunda Internet Exchange Point","Country":"GMB","latitude":13.448707425628271,"longitude":-16.53778524540901,"customers":""},{"id":"IXP_1801","name":"Côte d'Ivoire Internet Exchange Point","Country":"CIV","latitude":5.412894254998888,"longitude":-3.650507187714159,"customers":""},{"id":"IXP_1924","name":"Mombasa Internet Exchange Point","Country":"KEN","latitude":-3.711802041274788,"longitude":39.38320584389508,"customers":""},{"id":"IXP_1884","name":"Internet Exchange Point of Nigeria - Abuja","Country":"NGA","latitude":9.010869178093754,"longitude":6.866494814855518,"customers":""},{"id":"IXP_1928","name":"Senegal IX","Country":"SEN","latitude":14.728754470136975,"longitude":-17.57168834156117,"customers":""},{"id":"IXP_2070","name":"IXP-GUINEE","Country":"GIN","latitude":9.467858356506811,"longitude":-13.480954920916384,"customers":""},{"id":"IXP_1973","name":"Togo Internet Exchange Point","Country":"TGO","latitude":7.251411340827861,"longitude":1.392550880763704,"customers":""},{"id":"IXP_2019","name":"Mali IXP","Country":"MLI","latitude":13.531432003159935,"longitude":-8.144635700094074,"customers":""},{"id":"IXP_1993","name":"Harare Internet Exchange","Country":"ZWE","latitude":-18.106581928250865,"longitude":31.02512232968544,"customers":""},{"id":"IXP_1784","name":"Windhoek IXP","Country":"NAM","latitude":-23.004562156947987,"longitude":16.887860093766264,"customers":""},{"id":"IXP_1885","name":"Internet Exchange Point of Nigeria - Port Harcourt","Country":"NGA","latitude":5.01210018661351,"longitude":6.597647042258189,"customers":""},{"id":"IXP_1911","name":"Dodoma Internet Exchange Point","Country":"TZA","latitude":-5.5118068906330375,"longitude":36.15462107288037,"customers":""},{"id":"IXP_1881","name":"Madagascar Global Internet Exchange","Country":"MDG","latitude":-18.468899647606552,"longitude":47.47597634483397,"customers":""},{"id":"IXP_2036","name":"Zanzibar Internet Exchange Point","Country":"TZA","latitude":-7.194949050097917,"longitude":38.98658931197452,"customers":""},{"id":"IXP_1952","name":"Cameroon Internet Exchange Point","Country":"CMR","latitude":4.245398099210867,"longitude":11.925085218718044,"customers":""},{"id":"IXP_1992","name":"Burundi Internet Exchange Point","Country":"BDI","latitude":-2.9668410695758483,"longitude":29.439704997234955,"customers":""},{"id":"IXP_1897","name":"Liberia Internet Exchange Point","Country":"LBR","latitude":6.963568122888672,"longitude":-10.631186840309097,"customers":""},{"id":"IXP_1912","name":"Mwanza Internet Exchange Point","Country":"TZA","latitude":-2.0737184112378833,"longitude":32.50349478788153,"customers":""},{"id":"IXP_1541","name":"Congo Brazzaville IX","Country":"COG","latitude":-4.453861721461678,"longitude":15.02704794478657,"customers":""},{"id":"IXP_2072","name":"Somali Internet Exchange Point ","Country":"SOM","latitude":3.51089720572109,"longitude":45.404008581571,"customers":""},{"id":"IXP_1909","name":"Lubumbashi Internet Exchange","Country":"COD","latitude":-11.300982603987395,"longitude":27.798603897950773,"customers":""},{"id":"IXP_1917","name":"Casablanca Internet Exchange","Country":"MAR","latitude":33.10410552309918,"longitude":-8.077903050034877,"customers":""},{"id":"IXP_2145","name":"Tchad Internet Exchange Point ","Country":"TCD","latitude":12.644710355031238,"longitude":15.012344067163124,"customers":""},{"id":"IXP_1925","name":"Lesotho Internet Exchange Point","Country":"LSO","latitude":-29.060643753150263,"longitude":27.878148895013155,"customers":""},{"id":"IXP_2068","name":"West African Internet Exchange","Country":"NGA","latitude":6.935376746650248,"longitude":3.5738267202148815,"customers":""},{"id":"IXP_1805","name":"Enfidha Internet Exchange","Country":"TUN","latitude":36.43371096131317,"longitude":10.395367212307447,"customers":""},{"id":"IXP_1574","name":"CG-IX Pointe-Noire","Country":"COG","latitude":-4.364791723926065,"longitude":11.58786918883178,"customers":""},{"id":"IXP_1708","name":"Algeria Internet Exchange","Country":"DZA","latitude":36.55193067981016,"longitude":3.2726631241257023,"customers":""},{"id":"IXP_1804","name":"Mbabane Internet Exchange","Country":"SWZ","latitude":-26.139464998069805,"longitude":30.978727410564588,"customers":""},{"id":"IXP_1843","name":"Seychelles Internet Exchange Point","Country":"SYC","latitude":-4.61764,"longitude":55.44766,"customers":""},{"id":"IXP_1886","name":"Internet Exchange Point of Nigeria - Kano","Country":"NGA","latitude":11.671168348501654,"longitude":8.525560855487026,"customers":""},{"id":"IXP_1888","name":"Mauritania IX","Country":"MRT","latitude":17.932638332189274,"longitude":-15.595181679899591,"customers":""},{"id":"IXP_1904","name":"RIMIX","Country":"MRT","latitude":18.213049595004335,"longitude":-15.715531239683516,"customers":""},{"id":"IXP_1910","name":"Goma Internet Exchange","Country":"COD","latitude":-1.7228813300293955,"longitude":29.181527299598088,"customers":""},{"id":"IXP_1921","name":"Niger Internet Exchange","Country":"NER","latitude":13.107702783267587,"longitude":2.450234749423255,"customers":""},{"id":"IXP_1955","name":"Maroc Internet Exchange Point","Country":"MAR","latitude":33.80102332527049,"longitude":-6.661190715498897,"customers":""}]