[{"id":"IXP_1306","name":"NAPAfrica Johannesburg","Country":"ZAF","latitude":-25.708645061415826,"longitude":28.08244071302271,"customers":"ASN_7020_ZAF,ASN_4134_ZAF,ASN_6083_ZAF,ASN_3257_ZAF,ASN_3300_ZAF,ASN_5713_ZAF,ASN_5713_KEN,ASN_3741_ZAF,ASN_3741_SYC,ASN_714_ZAF,ASN_3356_ZAF,ASN_3356_NGA,ASN_2018_ZAF,ASN_2018_LSO,ASN_3491_ZAF,ASN_3491_ZMB,ASN_3491_TZA,ASN_3491_MOZ,ASN_3491_KEN,ASN_3491_TUN"},{"id":"IXP_616","name":"Internet Exchange Point of Nigeria - Lagos","Country":"NGA","latitude":6.632857016322397,"longitude":3.2755625145898364,"customers":"ASN_3491_ZAF,ASN_3491_ZMB,ASN_3491_TZA,ASN_3491_MOZ,ASN_3491_KEN,ASN_3491_TUN"},{"id":"IXP_1308","name":"NAPAfrica Cape Town","Country":"ZAF","latitude":-34.12081225181112,"longitude":18.974960969036697,"customers":"ASN_3491_ZAF,ASN_3491_ZMB,ASN_3491_TZA,ASN_3491_MOZ,ASN_3491_KEN,ASN_3491_TUN,ASN_2018_ZAF,ASN_2018_LSO,ASN_7020_ZAF,ASN_3356_ZAF,ASN_3356_NGA,ASN_3741_ZAF,ASN_3741_SYC,ASN_5713_ZAF,ASN_5713_KEN"},{"id":"IXP_209","name":"Johannesburg Internet Exchange","Country":"ZAF","latitude":-26.5074708129011,"longitude":28.066778923374294,"customers":"ASN_3741_ZAF,ASN_3741_SYC,ASN_6083_ZAF,ASN_2018_ZAF,ASN_2018_LSO,ASN_4134_ZAF,ASN_7020_ZAF,ASN_715_MUS,ASN_715_ZAF,ASN_715_EGY"},{"id":"IXP_143","name":"Kenya Internet Exchange Point","Country":"KEN","latitude":-0.8786878816189588,"longitude":36.95387347127288,"customers":"ASN_4134_ZAF,ASN_3491_ZAF,ASN_3491_ZMB,ASN_3491_TZA,ASN_3491_MOZ,ASN_3491_KEN,ASN_3491_TUN"},{"id":"IXP_206","name":"Cape Town Internet Exchange","Country":"ZAF","latitude":-34.09747147077311,"longitude":18.96881438206614,"customers":"ASN_3741_ZAF,ASN_3741_SYC,ASN_2018_ZAF,ASN_2018_LSO"},{"id":"IXP_1362","name":"Durban Internet eXchange","Country":"ZAF","latitude":-30.218871512656385,"longitude":30.65705358907107,"customers":"ASN_3741_ZAF,ASN_3741_SYC,ASN_5713_ZAF,ASN_5713_KEN,ASN_2018_ZAF,ASN_2018_LSO"},{"id":"IXP_479","name":"Kinshasa Internet Exchange","Country":"COD","latitude":-4.400880323084549,"longitude":15.163986368679241,"customers":""},{"id":"IXP_248","name":"Uganda Internet Exchange","Country":"UGA","latitude":0.7065599831709157,"longitude":32.30324136563014,"customers":""},{"id":"IXP_242","name":"TIX Tanzania - Dar es Salaam","Country":"TZA","latitude":-10.414494692678263,"longitude":39.42153444119342,"customers":"ASN_3741_ZAF,ASN_3741_SYC,ASN_6083_ZAF,ASN_2018_ZAF,ASN_2018_LSO,ASN_3491_ZAF,ASN_3491_ZMB,ASN_3491_TZA,ASN_3491_MOZ,ASN_3491_KEN,ASN_3491_TUN,ASN_3300_ZAF,ASN_714_ZAF,ASN_11259_AGO"},{"id":"IXP_93","name":"Ghana Internet Exchange","Country":"GHA","latitude":5.469814234052735,"longitude":-0.3824057363729592,"customers":""},{"id":"IXP_765","name":"Rwanda Internet exchange","Country":"RWA","latitude":-1.699922194330558,"longitude":30.403544798866776,"customers":""},{"id":"IXP_932","name":"Angola Internet Exchange","Country":"AGO","latitude":-9.186038183143513,"longitude":12.954913304408272,"customers":"ASN_11259_AGO"},{"id":"IXP_59","name":"Cairo Internet Exchange","Country":"EGY","latitude":29.86186860803554,"longitude":31.450643723790435,"customers":""},{"id":"IXP_367","name":"Botswana Internet Exchange","Country":"BWA","latitude":-24.36242360313242,"longitude":25.729745709258022,"customers":""},{"id":"IXP_156","name":"Mauritius Internet Exchange","Country":"MUS","latitude":-20.24435,"longitude":57.49175,"customers":""},{"id":"IXP_547","name":"Zambia Internet Exchange Point","Country":"ZMB","latitude":-15.838121222804478,"longitude":28.227988061851978,"customers":""},{"id":"IXP_606","name":"TIX Tanzania - Arusha","Country":"TZA","latitude":-3.3060862400944266,"longitude":37.023944047491774,"customers":""},{"id":"IXP_1312","name":"Sudan Internet Exchange Point","Country":"SDN","latitude":16.416487600511662,"longitude":32.48101712568208,"customers":""},{"id":"IXP_158","name":"Mozambique Internet Exchange","Country":"MOZ","latitude":-25.18753323304938,"longitude":32.75197915431046,"customers":"ASN_3491_ZAF,ASN_3491_ZMB,ASN_3491_TZA,ASN_3491_MOZ,ASN_3491_KEN,ASN_3491_TUN"},{"id":"IXP_1029","name":"Malawi IXP","Country":"MWI","latitude":-16.0955857266073,"longitude":34.938097690252086,"customers":""},{"id":"IXP_593","name":"Middle East Internet eXchange","Country":"EGY","latitude":30.443919349052972,"longitude":31.370270601149024,"customers":""},{"id":"IXP_60","name":"Cairo Regional Internet Exchange","Country":"EGY","latitude":30.005932167976137,"longitude":31.310309396805156,"customers":""},{"id":"IXP_173","name":"Ibadan Internet Exchange","Country":"NGA","latitude":7.589697560457644,"longitude":4.129440824194656,"customers":""},{"id":"IXP_207","name":"Hub","Country":"ZAF","latitude":-33.7007587604323,"longitude":18.692642237496898,"customers":""},{"id":"IXP_208","name":"Grahamstown Internet Exchange","Country":"ZAF","latitude":-32.298912689839014,"longitude":26.45609084810155,"customers":""},{"id":"IXP_210","name":"South African Internet Exchange","Country":"ZAF","latitude":-26.23166661181136,"longitude":28.376056176719587,"customers":""},{"id":"IXP_220","name":"Swaziland Internet Exchange","Country":"SWZ","latitude":-26.345996322831134,"longitude":31.257612645072758,"customers":""},{"id":"IXP_364","name":"Zimbabwe Internet Exchange","Country":"ZWE","latitude":-18.042857300450567,"longitude":30.93172489683716,"customers":""},{"id":"IXP_545","name":"Ponto de Intercambio Internet Angola","Country":"AGO","latitude":-8.49297388054137,"longitude":13.571926875172965,"customers":"ASN_11259_AGO"},{"id":"IXP_546","name":"BurundiX Internet Exchange Point","Country":"BDI","latitude":-3.285731059160416,"longitude":29.60369141221781,"customers":""},{"id":"IXP_699","name":"Côte d'Ivoire Internet Exchange Point","Country":"CIV","latitude":5.212667970710965,"longitude":-4.131714388037049,"customers":""},{"id":"IXP_1207","name":"AMS-IX East Africa","Country":"KEN","latitude":-3.6837939686754466,"longitude":39.26713979051206,"customers":""},{"id":"IXP_1303","name":"Lesotho Internet Exchange","Country":"LSO","latitude":-29.228406851731908,"longitude":27.647377167548,"customers":""},{"id":"IXP_1474","name":"Tunisian Internet Exchange Point","Country":"TUN","latitude":36.70053408355751,"longitude":10.125577146208286,"customers":"ASN_2609_TUN"},{"id":"IXP_1887","name":"Gabon Internet Exchange","Country":"GAB","latitude":0.22205511727968036,"longitude":9.70876311588248,"customers":""},{"id":"IXP_1840","name":"NAPAfrica Durban","Country":"ZAF","latitude":-30.076314803055432,"longitude":30.7443451352403,"customers":"ASN_2018_ZAF,ASN_2018_LSO,ASN_3741_ZAF,ASN_3741_SYC,ASN_5713_ZAF,ASN_5713_KEN"},{"id":"IXP_1929","name":"DjIX","Country":"DJI","latitude":11.799651471126003,"longitude":42.38131090437833,"customers":""},{"id":"IXP_1848","name":"ANGONIX","Country":"AGO","latitude":-8.984189315241657,"longitude":13.200550642638044,"customers":"ASN_11259_AGO"},{"id":"IXP_1839","name":"Burkina Faso IXP","Country":"BFA","latitude":14.476800481565643,"longitude":-1.3181501114989298,"customers":""},{"id":"IXP_2075","name":"Asteroid Mombasa","Country":"KEN","latitude":-4.557371710420379,"longitude":39.35070548267542,"customers":""},{"id":"IXP_2055","name":"Douala IXP","Country":"CMR","latitude":4.316464898830786,"longitude":9.637649932979487,"customers":""},{"id":"IXP_1838","name":"Benin IX","Country":"BEN","latitude":6.672013548155013,"longitude":2.4578375622603352,"customers":""},{"id":"IXP_1811","name":"Serrekunda Internet Exchange Point","Country":"GMB","latitude":13.23966784930502,"longitude":-16.664468396552646,"customers":""},{"id":"IXP_1801","name":"Côte d'Ivoire Internet Exchange Point","Country":"CIV","latitude":5.18686411570584,"longitude":-4.179018083913489,"customers":""},{"id":"IXP_1924","name":"Mombasa Internet Exchange Point","Country":"KEN","latitude":-4.079915073407402,"longitude":39.36195769237979,"customers":""},{"id":"IXP_1884","name":"Internet Exchange Point of Nigeria - Abuja","Country":"NGA","latitude":8.983328157983781,"longitude":6.823468095490462,"customers":""},{"id":"IXP_1928","name":"Senegal IX","Country":"SEN","latitude":14.65610952380801,"longitude":-17.284327946141424,"customers":""},{"id":"IXP_2070","name":"IXP-GUINEE","Country":"GIN","latitude":10.260589258660646,"longitude":-13.784567478180511,"customers":""},{"id":"IXP_1973","name":"Togo Internet Exchange Point","Country":"TGO","latitude":7.182425139501798,"longitude":1.3051075508076042,"customers":""},{"id":"IXP_2019","name":"Mali IXP","Country":"MLI","latitude":13.292851765415552,"longitude":-8.268993005072105,"customers":""},{"id":"IXP_1993","name":"Harare Internet Exchange","Country":"ZWE","latitude":-17.432621759919027,"longitude":31.210234001629924,"customers":""},{"id":"IXP_1784","name":"Windhoek IXP","Country":"NAM","latitude":-22.437465303372914,"longitude":17.113318491291356,"customers":""},{"id":"IXP_1885","name":"Internet Exchange Point of Nigeria - Port Harcourt","Country":"NGA","latitude":4.570554734554739,"longitude":6.852631705202434,"customers":""},{"id":"IXP_1911","name":"Dodoma Internet Exchange Point","Country":"TZA","latitude":-6.203548177478003,"longitude":35.90863392270888,"customers":""},{"id":"IXP_1881","name":"Madagascar Global Internet Exchange","Country":"MDG","latitude":-19.149432071882085,"longitude":47.43160155349351,"customers":""},{"id":"IXP_2036","name":"Zanzibar Internet Exchange Point","Country":"TZA","latitude":-6.689037339439759,"longitude":39.1742322395036,"customers":""},{"id":"IXP_1952","name":"Cameroon Internet Exchange Point","Country":"CMR","latitude":4.377201522290253,"longitude":11.856910460953138,"customers":""},{"id":"IXP_1992","name":"Burundi Internet Exchange Point","Country":"BDI","latitude":-3.1942697796499226,"longitude":29.299481306713314,"customers":""},{"id":"IXP_1897","name":"Liberia Internet Exchange Point","Country":"LBR","latitude":7.5965724814719815,"longitude":-10.779076050815123,"customers":""},{"id":"IXP_1912","name":"Mwanza Internet Exchange Point","Country":"TZA","latitude":-5.428220482369065,"longitude":33.01969088017559,"customers":""},{"id":"IXP_1541","name":"Congo Brazzaville IX","Country":"COG","latitude":-4.222701729168925,"longitude":15.078993457548382,"customers":""},{"id":"IXP_2072","name":"Somali Internet Exchange Point ","Country":"SOM","latitude":2.4985358056539084,"longitude":45.4032729128574,"customers":""},{"id":"IXP_1909","name":"Lubumbashi Internet Exchange","Country":"COD","latitude":-11.524320402577803,"longitude":27.418618974514697,"customers":""},{"id":"IXP_1917","name":"Casablanca Internet Exchange","Country":"MAR","latitude":31.438429478432685,"longitude":-7.6581523350769345,"customers":""},{"id":"IXP_2145","name":"Tchad Internet Exchange Point ","Country":"TCD","latitude":12.46696094594711,"longitude":15.246834412958036,"customers":""},{"id":"IXP_1925","name":"Lesotho Internet Exchange Point","Country":"LSO","latitude":-29.504786422427035,"longitude":27.864324095357507,"customers":""},{"id":"IXP_2068","name":"West African Internet Exchange","Country":"NGA","latitude":6.801111764049358,"longitude":3.5779819155851387,"customers":""},{"id":"IXP_1805","name":"Enfidha Internet Exchange","Country":"TUN","latitude":36.511510470254194,"longitude":10.240714272712722,"customers":""},{"id":"IXP_1574","name":"CG-IX Pointe-Noire","Country":"COG","latitude":-4.555808791570845,"longitude":11.604523255711895,"customers":""},{"id":"IXP_1708","name":"Algeria Internet Exchange","Country":"DZA","latitude":36.747964821467434,"longitude":3.1830506978805784,"customers":""},{"id":"IXP_1804","name":"Mbabane Internet Exchange","Country":"SWZ","latitude":-25.93726925110973,"longitude":31.13830952178886,"customers":""},{"id":"IXP_1843","name":"Seychelles Internet Exchange Point","Country":"SYC","latitude":-4.61764,"longitude":55.44766,"customers":""},{"id":"IXP_1886","name":"Internet Exchange Point of Nigeria - Kano","Country":"NGA","latitude":11.474700908952752,"longitude":8.150761360672732,"customers":""},{"id":"IXP_1888","name":"Mauritania IX","Country":"MRT","latitude":17.786933128009636,"longitude":-15.846559530032415,"customers":""},{"id":"IXP_1904","name":"RIMIX","Country":"MRT","latitude":18.020592101063286,"longitude":-16.11374096904965,"customers":""},{"id":"IXP_1910","name":"Goma Internet Exchange","Country":"COD","latitude":-1.7567364069002402,"longitude":28.799395388888673,"customers":""},{"id":"IXP_1921","name":"Niger Internet Exchange","Country":"NER","latitude":13.445857820000276,"longitude":2.600367185690507,"customers":""},{"id":"IXP_1955","name":"Maroc Internet Exchange Point","Country":"MAR","latitude":34.24951863973542,"longitude":-6.7243137524996985,"customers":""}]