[{"id":"IXP_1306","name":"NAPAfrica Johannesburg","country":"ZAF","latitude":-25.785077132817992,"longitude":26.697865111749582,"customers":"ASN_7020_ZAF,ASN_4134_ZAF,ASN_6083_ZAF,ASN_3257_ZAF,ASN_3300_ZAF,ASN_5713_ZAF,ASN_5713_KEN,ASN_3741_ZAF,ASN_3741_SYC,ASN_714_ZAF,ASN_3356_ZAF,ASN_3356_NGA,ASN_2018_ZAF,ASN_2018_LSO,ASN_3491_TZA,ASN_3491_ZAF,ASN_3491_KEN,ASN_3491_MOZ,ASN_3491_TUN,ASN_3491_ZMB"},{"id":"IXP_616","name":"Internet Exchange Point of Nigeria - Lagos","country":"NGA","latitude":6.587077359211942,"longitude":2.9447615636634548,"customers":"ASN_3491_TZA,ASN_3491_ZAF,ASN_3491_KEN,ASN_3491_MOZ,ASN_3491_TUN,ASN_3491_ZMB"},{"id":"IXP_1308","name":"NAPAfrica Cape Town","country":"ZAF","latitude":-34.4212398700873,"longitude":19.22409122486663,"customers":"ASN_3491_TZA,ASN_3491_ZAF,ASN_3491_KEN,ASN_3491_MOZ,ASN_3491_TUN,ASN_3491_ZMB,ASN_2018_ZAF,ASN_2018_LSO,ASN_7020_ZAF,ASN_3356_ZAF,ASN_3356_NGA,ASN_3741_ZAF,ASN_3741_SYC,ASN_5713_ZAF,ASN_5713_KEN"},{"id":"IXP_209","name":"Johannesburg Internet Exchange","country":"ZAF","latitude":-24.452285994204882,"longitude":27.96624184656978,"customers":"ASN_3741_ZAF,ASN_3741_SYC,ASN_6083_ZAF,ASN_2018_ZAF,ASN_2018_LSO,ASN_4134_ZAF,ASN_7020_ZAF,ASN_715_MUS,ASN_715_EGY,ASN_715_ZAF"},{"id":"IXP_1362","name":"Durban Internet eXchange","country":"ZAF","latitude":-29.511528070342788,"longitude":30.612078647696706,"customers":"ASN_3741_ZAF,ASN_3741_SYC,ASN_5713_ZAF,ASN_5713_KEN,ASN_2018_ZAF,ASN_2018_LSO"},{"id":"IXP_143","name":"Kenya Internet Exchange Point","country":"KEN","latitude":-1.4470400665366738,"longitude":35.85327032949189,"customers":"ASN_4134_ZAF,ASN_3491_TZA,ASN_3491_ZAF,ASN_3491_KEN,ASN_3491_MOZ,ASN_3491_TUN,ASN_3491_ZMB"},{"id":"IXP_206","name":"Cape Town Internet Exchange","country":"ZAF","latitude":-33.026633446954214,"longitude":18.914543492496556,"customers":"ASN_3741_ZAF,ASN_3741_SYC,ASN_2018_ZAF,ASN_2018_LSO"},{"id":"IXP_479","name":"Kinshasa Internet Exchange","country":"COD","latitude":-3.463758907265863,"longitude":16.180892341646928,"customers":""},{"id":"IXP_248","name":"Uganda Internet Exchange","country":"UGA","latitude":3.6121368738072253,"longitude":31.52127219554445,"customers":""},{"id":"IXP_242","name":"TIX Tanzania - Dar es Salaam","country":"TZA","latitude":-6.285702138455516,"longitude":38.57614367282485,"customers":"ASN_3741_ZAF,ASN_3741_SYC,ASN_6083_ZAF,ASN_2018_ZAF,ASN_2018_LSO,ASN_3491_TZA,ASN_3491_ZAF,ASN_3491_KEN,ASN_3491_MOZ,ASN_3491_TUN,ASN_3491_ZMB,ASN_3300_ZAF,ASN_714_ZAF,ASN_11259_AGO"},{"id":"IXP_93","name":"Ghana Internet Exchange","country":"GHA","latitude":7.015059063549964,"longitude":0.45691700701762517,"customers":""},{"id":"IXP_765","name":"Rwanda Internet exchange","country":"RWA","latitude":-2.119010079350515,"longitude":29.82032444688231,"customers":""},{"id":"IXP_932","name":"Angola Internet Exchange","country":"AGO","latitude":-7.268204463022514,"longitude":14.058050454498096,"customers":"ASN_11259_AGO"},{"id":"IXP_59","name":"Cairo Internet Exchange","country":"EGY","latitude":30.598147356579958,"longitude":32.81956159376847,"customers":""},{"id":"IXP_367","name":"Botswana Internet Exchange","country":"BWA","latitude":-25.103112144154892,"longitude":25.11257492656916,"customers":""},{"id":"IXP_156","name":"Mauritius Internet Exchange","country":"MUS","latitude":-20.24435,"longitude":57.49175,"customers":""},{"id":"IXP_547","name":"Zambia Internet Exchange Point","country":"ZMB","latitude":-14.601552545770893,"longitude":29.15260521638664,"customers":""},{"id":"IXP_606","name":"TIX Tanzania - Arusha","country":"TZA","latitude":-5.450706748684761,"longitude":36.05112089724753,"customers":""},{"id":"IXP_1312","name":"Sudan Internet Exchange Point","country":"SDN","latitude":14.716614203837931,"longitude":33.77820061333697,"customers":""},{"id":"IXP_158","name":"Mozambique Internet Exchange","country":"MOZ","latitude":-24.689249734690616,"longitude":31.887749131545956,"customers":"ASN_3491_TZA,ASN_3491_ZAF,ASN_3491_KEN,ASN_3491_MOZ,ASN_3491_TUN,ASN_3491_ZMB"},{"id":"IXP_1029","name":"Malawi IXP","country":"MWI","latitude":-14.34706523953535,"longitude":33.80962626475094,"customers":""},{"id":"IXP_593","name":"Middle East Internet eXchange","country":"EGY","latitude":29.780251661872967,"longitude":30.896578781575162,"customers":""},{"id":"IXP_60","name":"Cairo Regional Internet Exchange","country":"EGY","latitude":30.41548332139533,"longitude":30.131063552467417,"customers":""},{"id":"IXP_173","name":"Ibadan Internet Exchange","country":"NGA","latitude":8.395849031671242,"longitude":4.774779469236209,"customers":""},{"id":"IXP_207","name":"Hub","country":"ZAF","latitude":-32.685608858163214,"longitude":18.471769325051767,"customers":""},{"id":"IXP_208","name":"Grahamstown Internet Exchange","country":"ZAF","latitude":-31.301420563818258,"longitude":26.48445260547126,"customers":""},{"id":"IXP_210","name":"South African Internet Exchange","country":"ZAF","latitude":-26.97855468592951,"longitude":29.039021764634214,"customers":""},{"id":"IXP_220","name":"Swaziland Internet Exchange","country":"SWZ","latitude":-26.710896227687876,"longitude":31.484530560625053,"customers":""},{"id":"IXP_364","name":"Zimbabwe Internet Exchange","country":"ZWE","latitude":-17.31679205434307,"longitude":30.031660313745704,"customers":""},{"id":"IXP_545","name":"Ponto de Intercambio Internet Angola","country":"AGO","latitude":-9.082823891603939,"longitude":13.195575424549906,"customers":"ASN_11259_AGO"},{"id":"IXP_546","name":"BurundiX Internet Exchange Point","country":"BDI","latitude":-4.082253624983973,"longitude":29.944428346035135,"customers":""},{"id":"IXP_699","name":"Côte d'Ivoire Internet Exchange Point","country":"CIV","latitude":7.284027537885185,"longitude":-3.384364451814639,"customers":""},{"id":"IXP_1207","name":"AMS-IX East Africa","country":"KEN","latitude":-2.280030904882396,"longitude":40.469108103231896,"customers":""},{"id":"IXP_1303","name":"Lesotho Internet Exchange","country":"LSO","latitude":-29.034773310716012,"longitude":28.443869111728386,"customers":""},{"id":"IXP_1474","name":"Tunisian Internet Exchange Point","country":"TUN","latitude":36.23141124459809,"longitude":9.18550455197457,"customers":"ASN_2609_TUN"},{"id":"IXP_1887","name":"Gabon Internet Exchange","country":"GAB","latitude":0.4661644175451333,"longitude":9.541261643358178,"customers":""},{"id":"IXP_1840","name":"NAPAfrica Durban","country":"ZAF","latitude":-28.221786512070864,"longitude":30.806846338181025,"customers":"ASN_2018_ZAF,ASN_2018_LSO,ASN_3741_ZAF,ASN_3741_SYC,ASN_5713_ZAF,ASN_5713_KEN"},{"id":"IXP_1848","name":"ANGONIX","country":"AGO","latitude":-9.802912082006074,"longitude":13.701853966960826,"customers":"ASN_11259_AGO"},{"id":"IXP_1929","name":"DjIX","country":"DJI","latitude":11.53039201542469,"longitude":42.31169240736984,"customers":""},{"id":"IXP_2075","name":"Asteroid Mombasa","country":"KEN","latitude":-1.6606495194998607,"longitude":39.81508988999132,"customers":""},{"id":"IXP_1839","name":"Burkina Faso IXP","country":"BFA","latitude":11.647542414478325,"longitude":-1.414033076055023,"customers":""},{"id":"IXP_2055","name":"Douala IXP","country":"CMR","latitude":4.465046716651103,"longitude":11.30894489538026,"customers":""},{"id":"IXP_1884","name":"Internet Exchange Point of Nigeria - Abuja","country":"NGA","latitude":9.07519897734397,"longitude":6.830606610795798,"customers":""},{"id":"IXP_1811","name":"Serrekunda Internet Exchange Point","country":"GMB","latitude":13.339941555638708,"longitude":-16.617125325196096,"customers":""},{"id":"IXP_1801","name":"Côte d'Ivoire Internet Exchange Point","country":"CIV","latitude":6.193146190238224,"longitude":-4.9144861555746955,"customers":""},{"id":"IXP_1838","name":"Benin IX","country":"BEN","latitude":6.875120293015067,"longitude":2.568392873871273,"customers":""},{"id":"IXP_1928","name":"Senegal IX","country":"SEN","latitude":14.448045859758361,"longitude":-16.973715211382405,"customers":""},{"id":"IXP_2070","name":"IXP-GUINEE","country":"GIN","latitude":10.487380282309484,"longitude":-14.049253757187465,"customers":""},{"id":"IXP_1973","name":"Togo Internet Exchange Point","country":"TGO","latitude":9.68978371628966,"longitude":0.7833410346236167,"customers":""},{"id":"IXP_2019","name":"Mali IXP","country":"MLI","latitude":10.855391933591575,"longitude":-8.16040796429175,"customers":""},{"id":"IXP_1924","name":"Mombasa Internet Exchange Point","country":"KEN","latitude":-1.7379934710387337,"longitude":40.66300610072704,"customers":""},{"id":"IXP_1993","name":"Harare Internet Exchange","country":"ZWE","latitude":-19.68742427709477,"longitude":30.979378665629763,"customers":""},{"id":"IXP_1784","name":"Windhoek IXP","country":"NAM","latitude":-25.279785884535844,"longitude":18.106205980141038,"customers":""},{"id":"IXP_1885","name":"Internet Exchange Point of Nigeria - Port Harcourt","country":"NGA","latitude":6.1016383392562386,"longitude":7.689705496638549,"customers":""},{"id":"IXP_1911","name":"Dodoma Internet Exchange Point","country":"TZA","latitude":-7.042365873365987,"longitude":35.276828319320344,"customers":""},{"id":"IXP_1881","name":"Madagascar Global Internet Exchange","country":"MDG","latitude":-18.118414230670222,"longitude":45.93174662982214,"customers":""},{"id":"IXP_2036","name":"Zanzibar Internet Exchange Point","country":"TZA","latitude":-7.213475996721072,"longitude":37.695414280684744,"customers":""},{"id":"IXP_1952","name":"Cameroon Internet Exchange Point","country":"CMR","latitude":4.061039818504886,"longitude":12.78458245245685,"customers":""},{"id":"IXP_1992","name":"Burundi Internet Exchange Point","country":"BDI","latitude":-3.3019811525690126,"longitude":30.15036968229947,"customers":""},{"id":"IXP_1897","name":"Liberia Internet Exchange Point","country":"LBR","latitude":7.733314103960863,"longitude":-10.61645425544708,"customers":""},{"id":"IXP_1912","name":"Mwanza Internet Exchange Point","country":"TZA","latitude":-8.754475541797618,"longitude":34.3819831672444,"customers":""},{"id":"IXP_1541","name":"Congo Brazzaville IX","country":"COG","latitude":-3.8431446519875676,"longitude":13.836895563162747,"customers":""},{"id":"IXP_2072","name":"Somali Internet Exchange Point ","country":"SOM","latitude":3.0829234437554787,"longitude":44.76275117187243,"customers":""},{"id":"IXP_1909","name":"Lubumbashi Internet Exchange","country":"COD","latitude":-11.79311663266243,"longitude":28.167011553146953,"customers":""},{"id":"IXP_1917","name":"Casablanca Internet Exchange","country":"MAR","latitude":31.302199214945077,"longitude":-6.724993198612906,"customers":""},{"id":"IXP_1805","name":"Enfidha Internet Exchange","country":"TUN","latitude":36.05517875344736,"longitude":8.723613276521359,"customers":""},{"id":"IXP_1925","name":"Lesotho Internet Exchange Point","country":"LSO","latitude":-29.506032358579144,"longitude":27.68913948012986,"customers":""},{"id":"IXP_2145","name":"Tchad Internet Exchange Point ","country":"TCD","latitude":14.054851875801655,"longitude":15.68746831645531,"customers":""},{"id":"IXP_2068","name":"West African Internet Exchange","country":"NGA","latitude":6.543393110573298,"longitude":4.316177036254665,"customers":""},{"id":"IXP_1574","name":"CG-IX Pointe-Noire","country":"COG","latitude":-3.35199063483374,"longitude":11.943300830082414,"customers":""},{"id":"IXP_1708","name":"Algeria Internet Exchange","country":"DZA","latitude":36.779021335823884,"longitude":3.7937037283757613,"customers":""},{"id":"IXP_1804","name":"Mbabane Internet Exchange","country":"SWZ","latitude":-26.787667259819827,"longitude":31.963334782145964,"customers":""},{"id":"IXP_1843","name":"Seychelles Internet Exchange Point","country":"SYC","latitude":-4.61764,"longitude":55.44766,"customers":""},{"id":"IXP_1886","name":"Internet Exchange Point of Nigeria - Kano","country":"NGA","latitude":12.600066118794325,"longitude":8.605813167561497,"customers":""},{"id":"IXP_1888","name":"Mauritania IX","country":"MRT","latitude":18.723552440066435,"longitude":-15.30096083841765,"customers":""},{"id":"IXP_1904","name":"RIMIX","country":"MRT","latitude":18.606878196464784,"longitude":-15.559497293703823,"customers":""},{"id":"IXP_1910","name":"Goma Internet Exchange","country":"COD","latitude":0.714656639852405,"longitude":28.622460738057843,"customers":""},{"id":"IXP_1921","name":"Niger Internet Exchange","country":"NER","latitude":14.884410723735126,"longitude":1.7672560618230786,"customers":""},{"id":"IXP_1955","name":"Maroc Internet Exchange Point","country":"MAR","latitude":34.42003203070703,"longitude":-5.764141200632359,"customers":""}]