[{"id":"IXP_1306","name":"NAPAfrica Johannesburg","Country":"ZAF","latitude":-26.449565616425744,"longitude":28.528609775991956,"customers":"ASN_7020_ZAF,ASN_4134_ZAF,ASN_6083_ZAF,ASN_3257_ZAF,ASN_3300_ZAF,ASN_5713_ZAF,ASN_5713_KEN,ASN_3741_ZAF,ASN_3741_SYC,ASN_714_ZAF,ASN_3356_ZAF,ASN_3356_NGA,ASN_2018_ZAF,ASN_2018_LSO,ASN_3491_ZAF,ASN_3491_ZMB,ASN_3491_TZA,ASN_3491_MOZ,ASN_3491_KEN,ASN_3491_TUN"},{"id":"IXP_616","name":"Internet Exchange Point of Nigeria - Lagos","Country":"NGA","latitude":6.575642977043079,"longitude":3.4706901907806174,"customers":"ASN_3491_ZAF,ASN_3491_ZMB,ASN_3491_TZA,ASN_3491_MOZ,ASN_3491_KEN,ASN_3491_TUN"},{"id":"IXP_1308","name":"NAPAfrica Cape Town","Country":"ZAF","latitude":-33.67713137183821,"longitude":18.83427155843019,"customers":"ASN_3491_ZAF,ASN_3491_ZMB,ASN_3491_TZA,ASN_3491_MOZ,ASN_3491_KEN,ASN_3491_TUN,ASN_2018_ZAF,ASN_2018_LSO,ASN_7020_ZAF,ASN_3356_ZAF,ASN_3356_NGA,ASN_3741_ZAF,ASN_3741_SYC,ASN_5713_ZAF,ASN_5713_KEN"},{"id":"IXP_209","name":"Johannesburg Internet Exchange","Country":"ZAF","latitude":-26.01353041843427,"longitude":28.389550630135446,"customers":"ASN_3741_ZAF,ASN_3741_SYC,ASN_6083_ZAF,ASN_2018_ZAF,ASN_2018_LSO,ASN_4134_ZAF,ASN_7020_ZAF,ASN_715_MUS,ASN_715_ZAF,ASN_715_EGY"},{"id":"IXP_143","name":"Kenya Internet Exchange Point","Country":"KEN","latitude":-1.5778042958972753,"longitude":36.81766280020248,"customers":"ASN_4134_ZAF,ASN_3491_ZAF,ASN_3491_ZMB,ASN_3491_TZA,ASN_3491_MOZ,ASN_3491_KEN,ASN_3491_TUN"},{"id":"IXP_206","name":"Cape Town Internet Exchange","Country":"ZAF","latitude":-34.09925240778229,"longitude":18.925887676522485,"customers":"ASN_3741_ZAF,ASN_3741_SYC,ASN_2018_ZAF,ASN_2018_LSO"},{"id":"IXP_1362","name":"Durban Internet eXchange","Country":"ZAF","latitude":-30.13205071525878,"longitude":30.65929007766956,"customers":"ASN_3741_ZAF,ASN_3741_SYC,ASN_5713_ZAF,ASN_5713_KEN,ASN_2018_ZAF,ASN_2018_LSO"},{"id":"IXP_479","name":"Kinshasa Internet Exchange","Country":"COD","latitude":-4.712457549068577,"longitude":15.296937937309478,"customers":""},{"id":"IXP_248","name":"Uganda Internet Exchange","Country":"UGA","latitude":0.6582536650038366,"longitude":32.435858105664565,"customers":""},{"id":"IXP_242","name":"TIX Tanzania - Dar es Salaam","Country":"TZA","latitude":-8.176867534286728,"longitude":39.09436608271513,"customers":"ASN_3741_ZAF,ASN_3741_SYC,ASN_6083_ZAF,ASN_2018_ZAF,ASN_2018_LSO,ASN_3491_ZAF,ASN_3491_ZMB,ASN_3491_TZA,ASN_3491_MOZ,ASN_3491_KEN,ASN_3491_TUN,ASN_3300_ZAF,ASN_714_ZAF,ASN_11259_AGO"},{"id":"IXP_93","name":"Ghana Internet Exchange","Country":"GHA","latitude":6.032022365976447,"longitude":-0.06103332076093311,"customers":""},{"id":"IXP_765","name":"Rwanda Internet exchange","Country":"RWA","latitude":-1.9065629542766271,"longitude":30.136425220523588,"customers":""},{"id":"IXP_932","name":"Angola Internet Exchange","Country":"AGO","latitude":-8.894212656701036,"longitude":13.129810498387505,"customers":"ASN_11259_AGO"},{"id":"IXP_59","name":"Cairo Internet Exchange","Country":"EGY","latitude":30.011951344100243,"longitude":31.066885415163267,"customers":""},{"id":"IXP_367","name":"Botswana Internet Exchange","Country":"BWA","latitude":-24.545138502136187,"longitude":25.822450053940162,"customers":""},{"id":"IXP_156","name":"Mauritius Internet Exchange","Country":"MUS","latitude":-20.24435,"longitude":57.49175,"customers":""},{"id":"IXP_547","name":"Zambia Internet Exchange Point","Country":"ZMB","latitude":-15.78988519331637,"longitude":28.41392481812583,"customers":""},{"id":"IXP_606","name":"TIX Tanzania - Arusha","Country":"TZA","latitude":-2.7690523569234644,"longitude":36.63332258738993,"customers":""},{"id":"IXP_1312","name":"Sudan Internet Exchange Point","Country":"SDN","latitude":15.338247735409448,"longitude":32.70794635615659,"customers":""},{"id":"IXP_158","name":"Mozambique Internet Exchange","Country":"MOZ","latitude":-25.486100540256334,"longitude":32.229851418083726,"customers":"ASN_3491_ZAF,ASN_3491_ZMB,ASN_3491_TZA,ASN_3491_MOZ,ASN_3491_KEN,ASN_3491_TUN"},{"id":"IXP_1029","name":"Malawi IXP","Country":"MWI","latitude":-15.873969401731177,"longitude":35.270415176033154,"customers":""},{"id":"IXP_593","name":"Middle East Internet eXchange","Country":"EGY","latitude":30.331527210681518,"longitude":31.512274787769037,"customers":""},{"id":"IXP_60","name":"Cairo Regional Internet Exchange","Country":"EGY","latitude":30.189833670249893,"longitude":31.543196779517185,"customers":""},{"id":"IXP_173","name":"Ibadan Internet Exchange","Country":"NGA","latitude":7.258913070223064,"longitude":3.724326399175264,"customers":""},{"id":"IXP_207","name":"Hub","Country":"ZAF","latitude":-33.614241087557794,"longitude":18.743561080261177,"customers":""},{"id":"IXP_208","name":"Grahamstown Internet Exchange","Country":"ZAF","latitude":-33.44848307586957,"longitude":26.48826612277243,"customers":""},{"id":"IXP_210","name":"South African Internet Exchange","Country":"ZAF","latitude":-26.370259846105014,"longitude":28.17707982393063,"customers":""},{"id":"IXP_220","name":"Swaziland Internet Exchange","Country":"SWZ","latitude":-26.180621851183734,"longitude":31.335444519814956,"customers":""},{"id":"IXP_364","name":"Zimbabwe Internet Exchange","Country":"ZWE","latitude":-17.811623940922114,"longitude":31.206728388171182,"customers":""},{"id":"IXP_545","name":"Ponto de Intercambio Internet Angola","Country":"AGO","latitude":-9.026082466230008,"longitude":12.917090292776647,"customers":"ASN_11259_AGO"},{"id":"IXP_546","name":"BurundiX Internet Exchange Point","Country":"BDI","latitude":-3.174766704348347,"longitude":29.362423653584774,"customers":""},{"id":"IXP_699","name":"Côte d'Ivoire Internet Exchange Point","Country":"CIV","latitude":5.635327141890689,"longitude":-4.082233457209397,"customers":""},{"id":"IXP_1207","name":"AMS-IX East Africa","Country":"KEN","latitude":-4.206980569320685,"longitude":39.288307617178795,"customers":""},{"id":"IXP_1303","name":"Lesotho Internet Exchange","Country":"LSO","latitude":-29.340635208280993,"longitude":27.458011229892723,"customers":""},{"id":"IXP_1474","name":"Tunisian Internet Exchange Point","Country":"TUN","latitude":36.6363106357396,"longitude":9.908317837736291,"customers":"ASN_2609_TUN"},{"id":"IXP_1887","name":"Gabon Internet Exchange","Country":"GAB","latitude":0.33541085595800146,"longitude":9.443064641812413,"customers":""},{"id":"IXP_1840","name":"NAPAfrica Durban","Country":"ZAF","latitude":-29.718468943104558,"longitude":30.93029198811582,"customers":"ASN_2018_ZAF,ASN_2018_LSO,ASN_3741_ZAF,ASN_3741_SYC,ASN_5713_ZAF,ASN_5713_KEN"},{"id":"IXP_1929","name":"DjIX","Country":"DJI","latitude":12.169399156486238,"longitude":42.72880660705295,"customers":""},{"id":"IXP_1848","name":"ANGONIX","Country":"AGO","latitude":-8.756509563731122,"longitude":13.503917599291459,"customers":"ASN_11259_AGO"},{"id":"IXP_1839","name":"Burkina Faso IXP","Country":"BFA","latitude":11.607729344165715,"longitude":-1.889498873286124,"customers":""},{"id":"IXP_2075","name":"Asteroid Mombasa","Country":"KEN","latitude":-3.934558482959308,"longitude":39.45561044685113,"customers":""},{"id":"IXP_2055","name":"Douala IXP","Country":"CMR","latitude":3.7646343162732667,"longitude":9.442929431598108,"customers":""},{"id":"IXP_1838","name":"Benin IX","Country":"BEN","latitude":6.582315145549637,"longitude":2.2189506697686303,"customers":""},{"id":"IXP_1811","name":"Serrekunda Internet Exchange Point","Country":"GMB","latitude":13.378214935537107,"longitude":-16.420449363438998,"customers":""},{"id":"IXP_1801","name":"Côte d'Ivoire Internet Exchange Point","Country":"CIV","latitude":5.566912708001542,"longitude":-3.781301330688182,"customers":""},{"id":"IXP_1924","name":"Mombasa Internet Exchange Point","Country":"KEN","latitude":-3.055546592793685,"longitude":39.66656987530405,"customers":""},{"id":"IXP_1884","name":"Internet Exchange Point of Nigeria - Abuja","Country":"NGA","latitude":9.388095364711457,"longitude":6.8777003491817394,"customers":""},{"id":"IXP_1928","name":"Senegal IX","Country":"SEN","latitude":14.748111532740069,"longitude":-17.427629291275917,"customers":""},{"id":"IXP_2070","name":"IXP-GUINEE","Country":"GIN","latitude":9.971641367665896,"longitude":-13.649526367226407,"customers":""},{"id":"IXP_1973","name":"Togo Internet Exchange Point","Country":"TGO","latitude":6.687084031012815,"longitude":1.1332939677712237,"customers":""},{"id":"IXP_2019","name":"Mali IXP","Country":"MLI","latitude":11.604823784578059,"longitude":-8.023437722818324,"customers":""},{"id":"IXP_1993","name":"Harare Internet Exchange","Country":"ZWE","latitude":-17.549575060360162,"longitude":31.32549699036704,"customers":""},{"id":"IXP_1784","name":"Windhoek IXP","Country":"NAM","latitude":-24.241761265581115,"longitude":17.09787939043246,"customers":""},{"id":"IXP_1885","name":"Internet Exchange Point of Nigeria - Port Harcourt","Country":"NGA","latitude":4.531155802747334,"longitude":7.3204937343933105,"customers":""},{"id":"IXP_1911","name":"Dodoma Internet Exchange Point","Country":"TZA","latitude":-5.706174966215443,"longitude":35.71112163944278,"customers":""},{"id":"IXP_1881","name":"Madagascar Global Internet Exchange","Country":"MDG","latitude":-18.850508515151184,"longitude":47.2762588206587,"customers":""},{"id":"IXP_2036","name":"Zanzibar Internet Exchange Point","Country":"TZA","latitude":-7.222795829409421,"longitude":38.94561814266374,"customers":""},{"id":"IXP_1952","name":"Cameroon Internet Exchange Point","Country":"CMR","latitude":3.6888041125066415,"longitude":11.265010026804918,"customers":""},{"id":"IXP_1992","name":"Burundi Internet Exchange Point","Country":"BDI","latitude":-3.289043914925228,"longitude":29.49414774764579,"customers":""},{"id":"IXP_1897","name":"Liberia Internet Exchange Point","Country":"LBR","latitude":6.305812809741952,"longitude":-10.53155151929703,"customers":""},{"id":"IXP_1912","name":"Mwanza Internet Exchange Point","Country":"TZA","latitude":-1.0809428549064624,"longitude":33.276655363452555,"customers":""},{"id":"IXP_1541","name":"Congo Brazzaville IX","Country":"COG","latitude":-3.9764056350829744,"longitude":15.377973452202284,"customers":""},{"id":"IXP_2072","name":"Somali Internet Exchange Point ","Country":"SOM","latitude":3.3637968036611308,"longitude":45.20001839888944,"customers":""},{"id":"IXP_1909","name":"Lubumbashi Internet Exchange","Country":"COD","latitude":-11.733332252128383,"longitude":27.37832016534865,"customers":""},{"id":"IXP_1917","name":"Casablanca Internet Exchange","Country":"MAR","latitude":31.694530278348733,"longitude":-7.489872959568416,"customers":""},{"id":"IXP_2145","name":"Tchad Internet Exchange Point ","Country":"TCD","latitude":11.769889285524755,"longitude":15.193076626317922,"customers":""},{"id":"IXP_1925","name":"Lesotho Internet Exchange Point","Country":"LSO","latitude":-29.263956641351736,"longitude":27.89725129883188,"customers":""},{"id":"IXP_2068","name":"West African Internet Exchange","Country":"NGA","latitude":6.814876927071637,"longitude":3.0899210168294178,"customers":""},{"id":"IXP_1805","name":"Enfidha Internet Exchange","Country":"TUN","latitude":35.647175952341826,"longitude":10.40567020897771,"customers":""},{"id":"IXP_1574","name":"CG-IX Pointe-Noire","Country":"COG","latitude":-4.603027180742124,"longitude":11.600201103599337,"customers":""},{"id":"IXP_1708","name":"Algeria Internet Exchange","Country":"DZA","latitude":36.360993917467766,"longitude":2.9337050142145973,"customers":""},{"id":"IXP_1804","name":"Mbabane Internet Exchange","Country":"SWZ","latitude":-26.402980666147922,"longitude":30.92190307356189,"customers":""},{"id":"IXP_1843","name":"Seychelles Internet Exchange Point","Country":"SYC","latitude":-4.61764,"longitude":55.44766,"customers":""},{"id":"IXP_1886","name":"Internet Exchange Point of Nigeria - Kano","Country":"NGA","latitude":11.796467770919186,"longitude":8.268733751625284,"customers":""},{"id":"IXP_1888","name":"Mauritania IX","Country":"MRT","latitude":18.15338583030669,"longitude":-15.796025738514071,"customers":""},{"id":"IXP_1904","name":"RIMIX","Country":"MRT","latitude":18.0452945930865,"longitude":-15.536923842405058,"customers":""},{"id":"IXP_1910","name":"Goma Internet Exchange","Country":"COD","latitude":-1.7371429194824308,"longitude":29.15915619696476,"customers":""},{"id":"IXP_1921","name":"Niger Internet Exchange","Country":"NER","latitude":13.083916936616022,"longitude":2.206198778255946,"customers":""},{"id":"IXP_1955","name":"Maroc Internet Exchange Point","Country":"MAR","latitude":34.028353695354,"longitude":-7.002162115292032,"customers":""}]