[{"id":"IXP_1306","name":"NAPAfrica Johannesburg","country":"ZAF","latitude":-25.15804825937228,"longitude":29.50787263668104,"customers":"ASN_7020_ZAF,ASN_4134_ZAF,ASN_6083_ZAF,ASN_3257_ZAF,ASN_3300_ZAF,ASN_5713_ZAF,ASN_5713_KEN,ASN_3741_ZAF,ASN_3741_SYC,ASN_714_ZAF,ASN_3356_ZAF,ASN_3356_NGA,ASN_2018_ZAF,ASN_2018_LSO,ASN_3491_TZA,ASN_3491_ZAF,ASN_3491_KEN,ASN_3491_MOZ,ASN_3491_TUN,ASN_3491_ZMB"},{"id":"IXP_616","name":"Internet Exchange Point of Nigeria - Lagos","country":"NGA","latitude":6.838985996550313,"longitude":3.026781948958156,"customers":"ASN_3491_TZA,ASN_3491_ZAF,ASN_3491_KEN,ASN_3491_MOZ,ASN_3491_TUN,ASN_3491_ZMB"},{"id":"IXP_1308","name":"NAPAfrica Cape Town","country":"ZAF","latitude":-33.524501660471714,"longitude":18.501031788426715,"customers":"ASN_3491_TZA,ASN_3491_ZAF,ASN_3491_KEN,ASN_3491_MOZ,ASN_3491_TUN,ASN_3491_ZMB,ASN_2018_ZAF,ASN_2018_LSO,ASN_7020_ZAF,ASN_3356_ZAF,ASN_3356_NGA,ASN_3741_ZAF,ASN_3741_SYC,ASN_5713_ZAF,ASN_5713_KEN"},{"id":"IXP_209","name":"Johannesburg Internet Exchange","country":"ZAF","latitude":-25.547501069583205,"longitude":28.641415048890202,"customers":"ASN_3741_ZAF,ASN_3741_SYC,ASN_6083_ZAF,ASN_2018_ZAF,ASN_2018_LSO,ASN_4134_ZAF,ASN_7020_ZAF,ASN_715_MUS,ASN_715_EGY,ASN_715_ZAF"},{"id":"IXP_1362","name":"Durban Internet eXchange","country":"ZAF","latitude":-28.350330934709557,"longitude":30.84340665196694,"customers":"ASN_3741_ZAF,ASN_3741_SYC,ASN_5713_ZAF,ASN_5713_KEN,ASN_2018_ZAF,ASN_2018_LSO"},{"id":"IXP_143","name":"Kenya Internet Exchange Point","country":"KEN","latitude":-2.4184730007937465,"longitude":36.87326295813103,"customers":"ASN_3491_TZA,ASN_3491_ZAF,ASN_3491_KEN,ASN_3491_MOZ,ASN_3491_TUN,ASN_3491_ZMB"},{"id":"IXP_206","name":"Cape Town Internet Exchange","country":"ZAF","latitude":-32.38507014187077,"longitude":18.45099554070256,"customers":"ASN_3741_ZAF,ASN_3741_SYC,ASN_2018_ZAF,ASN_2018_LSO"},{"id":"IXP_479","name":"Kinshasa Internet Exchange","country":"COD","latitude":-5.256705275461982,"longitude":14.40964055111382,"customers":""},{"id":"IXP_248","name":"Uganda Internet Exchange","country":"UGA","latitude":3.172889297672951,"longitude":32.64609410899656,"customers":""},{"id":"IXP_242","name":"TIX Tanzania - Dar es Salaam","country":"TZA","latitude":-9.818758589212253,"longitude":39.737390317603825,"customers":"ASN_3741_ZAF,ASN_3741_SYC,ASN_6083_ZAF,ASN_2018_ZAF,ASN_2018_LSO,ASN_3491_TZA,ASN_3491_ZAF,ASN_3491_KEN,ASN_3491_MOZ,ASN_3491_TUN,ASN_3491_ZMB,ASN_3300_ZAF,ASN_714_ZAF,ASN_11259_AGO"},{"id":"IXP_93","name":"Ghana Internet Exchange","country":"GHA","latitude":6.262479389138612,"longitude":-0.6943131447567877,"customers":""},{"id":"IXP_765","name":"Rwanda Internet exchange","country":"RWA","latitude":-1.765497454765404,"longitude":29.510140976775606,"customers":""},{"id":"IXP_932","name":"Angola Internet Exchange","country":"AGO","latitude":-9.890252372391783,"longitude":14.379693128726686,"customers":"ASN_11259_AGO"},{"id":"IXP_59","name":"Cairo Internet Exchange","country":"EGY","latitude":29.730888353693558,"longitude":32.78899269241418,"customers":""},{"id":"IXP_367","name":"Botswana Internet Exchange","country":"BWA","latitude":-22.928711121534093,"longitude":25.14043697199406,"customers":""},{"id":"IXP_156","name":"Mauritius Internet Exchange","country":"MUS","latitude":-20.24435,"longitude":57.49175,"customers":""},{"id":"IXP_547","name":"Zambia Internet Exchange Point","country":"ZMB","latitude":-14.751854717432346,"longitude":27.855363385212133,"customers":""},{"id":"IXP_606","name":"TIX Tanzania - Arusha","country":"TZA","latitude":-5.455583063177249,"longitude":36.407487592340885,"customers":""},{"id":"IXP_1312","name":"Sudan Internet Exchange Point","country":"SDN","latitude":18.871845399429876,"longitude":32.3573555972786,"customers":""},{"id":"IXP_158","name":"Mozambique Internet Exchange","country":"MOZ","latitude":-22.79873656052484,"longitude":32.928750363213524,"customers":"ASN_3491_TZA,ASN_3491_ZAF,ASN_3491_KEN,ASN_3491_MOZ,ASN_3491_TUN,ASN_3491_ZMB"},{"id":"IXP_1029","name":"Malawi IXP","country":"MWI","latitude":-14.181817805845412,"longitude":34.06535272642536,"customers":""},{"id":"IXP_593","name":"Middle East Internet eXchange","country":"EGY","latitude":30.861129982484925,"longitude":31.696793306546734,"customers":""},{"id":"IXP_60","name":"Cairo Regional Internet Exchange","country":"EGY","latitude":28.911111639798246,"longitude":31.59942264325486,"customers":""},{"id":"IXP_173","name":"Ibadan Internet Exchange","country":"NGA","latitude":8.857303648628692,"longitude":3.3185711063599452,"customers":""},{"id":"IXP_207","name":"Hub","country":"ZAF","latitude":-32.54018020023109,"longitude":18.859824847167197,"customers":""},{"id":"IXP_208","name":"Grahamstown Internet Exchange","country":"ZAF","latitude":-31.468375144238408,"longitude":27.22258486203476,"customers":""},{"id":"IXP_210","name":"South African Internet Exchange","country":"ZAF","latitude":-26.392748206547232,"longitude":29.727549396984468,"customers":""},{"id":"IXP_220","name":"Swaziland Internet Exchange","country":"SWZ","latitude":-26.48520249518232,"longitude":30.956499502682043,"customers":""},{"id":"IXP_364","name":"Zimbabwe Internet Exchange","country":"ZWE","latitude":-18.70575620641508,"longitude":31.212937229906498,"customers":""},{"id":"IXP_545","name":"Ponto de Intercambio Internet Angola","country":"AGO","latitude":-9.007425760260361,"longitude":13.528669972098587,"customers":"ASN_11259_AGO"},{"id":"IXP_546","name":"BurundiX Internet Exchange Point","country":"BDI","latitude":-3.945695430839207,"longitude":29.785147466816674,"customers":""},{"id":"IXP_699","name":"Côte d'Ivoire Internet Exchange Point","country":"CIV","latitude":7.492086099190361,"longitude":-4.083814039309714,"customers":""},{"id":"IXP_1207","name":"AMS-IX East Africa","country":"KEN","latitude":-0.013653464453361686,"longitude":39.72717841839211,"customers":""},{"id":"IXP_1303","name":"Lesotho Internet Exchange","country":"LSO","latitude":-29.5002575206058,"longitude":28.05339295579362,"customers":""},{"id":"IXP_1474","name":"Tunisian Internet Exchange Point","country":"TUN","latitude":36.65120978368361,"longitude":10.53178328646166,"customers":"ASN_2609_TUN"},{"id":"IXP_1887","name":"Gabon Internet Exchange","country":"GAB","latitude":-0.3081922345378414,"longitude":9.695280742336692,"customers":""},{"id":"IXP_1840","name":"NAPAfrica Durban","country":"ZAF","latitude":-29.37285452625246,"longitude":31.212332265467793,"customers":"ASN_2018_ZAF,ASN_2018_LSO,ASN_3741_ZAF,ASN_3741_SYC,ASN_5713_ZAF,ASN_5713_KEN"},{"id":"IXP_1848","name":"ANGONIX","country":"AGO","latitude":-6.950285383380873,"longitude":13.094384621264807,"customers":"ASN_11259_AGO"},{"id":"IXP_1929","name":"DjIX","country":"DJI","latitude":12.264628197308339,"longitude":42.567494767046455,"customers":""},{"id":"IXP_1839","name":"Burkina Faso IXP","country":"BFA","latitude":13.015486299296548,"longitude":-2.1446554691685593,"customers":""},{"id":"IXP_2075","name":"Asteroid Mombasa","country":"KEN","latitude":-1.871875121370909,"longitude":39.66598292238099,"customers":""},{"id":"IXP_2055","name":"Douala IXP","country":"CMR","latitude":4.063968557172754,"longitude":9.678467912328028,"customers":""},{"id":"IXP_1884","name":"Internet Exchange Point of Nigeria - Abuja","country":"NGA","latitude":8.586699447665962,"longitude":6.058093062216963,"customers":""},{"id":"IXP_1838","name":"Benin IX","country":"BEN","latitude":7.384360353231669,"longitude":2.2613137407712216,"customers":""},{"id":"IXP_1811","name":"Serrekunda Internet Exchange Point","country":"GMB","latitude":13.339420550539376,"longitude":-15.868067290128465,"customers":""},{"id":"IXP_1801","name":"Côte d'Ivoire Internet Exchange Point","country":"CIV","latitude":5.525765008792527,"longitude":-4.167993758167426,"customers":""},{"id":"IXP_1924","name":"Mombasa Internet Exchange Point","country":"KEN","latitude":-1.3046262011094822,"longitude":39.42228710487574,"customers":""},{"id":"IXP_1928","name":"Senegal IX","country":"SEN","latitude":13.923170047020216,"longitude":-16.860117693072333,"customers":""},{"id":"IXP_1993","name":"Harare Internet Exchange","country":"ZWE","latitude":-15.914564317881318,"longitude":30.7454159459569,"customers":""},{"id":"IXP_2070","name":"IXP-GUINEE","country":"GIN","latitude":9.998975789041625,"longitude":-13.448889659618258,"customers":""},{"id":"IXP_2019","name":"Mali IXP","country":"MLI","latitude":10.426391564117395,"longitude":-6.775540401977864,"customers":""},{"id":"IXP_1973","name":"Togo Internet Exchange Point","country":"TGO","latitude":6.766412358699109,"longitude":1.4555209166097165,"customers":""},{"id":"IXP_1784","name":"Windhoek IXP","country":"NAM","latitude":-22.625751498781046,"longitude":15.639777377110518,"customers":""},{"id":"IXP_1885","name":"Internet Exchange Point of Nigeria - Port Harcourt","country":"NGA","latitude":5.120728365188715,"longitude":6.043429621194584,"customers":""},{"id":"IXP_1911","name":"Dodoma Internet Exchange Point","country":"TZA","latitude":-9.419415427038919,"longitude":35.333858285308075,"customers":""},{"id":"IXP_1881","name":"Madagascar Global Internet Exchange","country":"MDG","latitude":-19.16085846609283,"longitude":46.598149059909055,"customers":""},{"id":"IXP_2036","name":"Zanzibar Internet Exchange Point","country":"TZA","latitude":-4.284532256061718,"longitude":38.35161686659937,"customers":""},{"id":"IXP_1952","name":"Cameroon Internet Exchange Point","country":"CMR","latitude":6.214956562072846,"longitude":11.686322997235091,"customers":""},{"id":"IXP_1992","name":"Burundi Internet Exchange Point","country":"BDI","latitude":-2.548372243384726,"longitude":30.399529425102266,"customers":""},{"id":"IXP_1897","name":"Liberia Internet Exchange Point","country":"LBR","latitude":7.304037385425627,"longitude":-10.50520231206747,"customers":""},{"id":"IXP_1912","name":"Mwanza Internet Exchange Point","country":"TZA","latitude":-3.308933657071218,"longitude":33.852077229702736,"customers":""},{"id":"IXP_1541","name":"Congo Brazzaville IX","country":"COG","latitude":-3.4147335362856523,"longitude":14.350819522502041,"customers":""},{"id":"IXP_2072","name":"Somali Internet Exchange Point ","country":"SOM","latitude":3.836942512408857,"longitude":46.62568106052271,"customers":""},{"id":"IXP_2145","name":"Tchad Internet Exchange Point ","country":"TCD","latitude":13.638990535292983,"longitude":16.13066217942198,"customers":""},{"id":"IXP_1909","name":"Lubumbashi Internet Exchange","country":"COD","latitude":-11.50313146522552,"longitude":26.067736059216305,"customers":""},{"id":"IXP_1925","name":"Lesotho Internet Exchange Point","country":"LSO","latitude":-29.86195164278882,"longitude":27.24757276467334,"customers":""},{"id":"IXP_1917","name":"Casablanca Internet Exchange","country":"MAR","latitude":34.9978540468388,"longitude":-6.2589455079464855,"customers":""},{"id":"IXP_1805","name":"Enfidha Internet Exchange","country":"TUN","latitude":34.95179291556851,"longitude":10.207153478418524,"customers":""},{"id":"IXP_2068","name":"West African Internet Exchange","country":"NGA","latitude":6.688366388480082,"longitude":3.8638268445321224,"customers":""},{"id":"IXP_1574","name":"CG-IX Pointe-Noire","country":"COG","latitude":-4.293692050115882,"longitude":11.465728858731682,"customers":""},{"id":"IXP_1708","name":"Algeria Internet Exchange","country":"DZA","latitude":36.21152838330828,"longitude":2.2170348771629502,"customers":""},{"id":"IXP_1804","name":"Mbabane Internet Exchange","country":"SWZ","latitude":-26.409432052809418,"longitude":31.97205178638407,"customers":""},{"id":"IXP_1843","name":"Seychelles Internet Exchange Point","country":"SYC","latitude":-4.61764,"longitude":55.44766,"customers":""},{"id":"IXP_1886","name":"Internet Exchange Point of Nigeria - Kano","country":"NGA","latitude":9.696314119919421,"longitude":7.571232402457168,"customers":""},{"id":"IXP_1888","name":"Mauritania IX","country":"MRT","latitude":17.640435022041306,"longitude":-15.944802623177779,"customers":""},{"id":"IXP_1904","name":"RIMIX","country":"MRT","latitude":18.594287138421855,"longitude":-14.891142770557892,"customers":""},{"id":"IXP_1910","name":"Goma Internet Exchange","country":"COD","latitude":-3.5397602771168657,"longitude":28.885647500350235,"customers":""},{"id":"IXP_1921","name":"Niger Internet Exchange","country":"NER","latitude":13.285066299390907,"longitude":1.0859122703826944,"customers":""},{"id":"IXP_1955","name":"Maroc Internet Exchange Point","country":"MAR","latitude":34.170723147489085,"longitude":-5.738671367456192,"customers":""}]