[{"id":"IXP_1306","name":"NAPAfrica Johannesburg","country":"ZAF","latitude":-26.90100991224719,"longitude":27.052594141358338,"customers":"ASN_7020_ZAF,ASN_4134_ZAF,ASN_6083_ZAF,ASN_3257_ZAF,ASN_3300_ZAF,ASN_10310_ZAF,ASN_5713_ZAF,ASN_5713_KEN,ASN_10474_ZAF,ASN_3741_ZAF,ASN_3741_SYC,ASN_714_ZAF,ASN_3356_NGA,ASN_3356_ZAF,ASN_11845_ZAF,ASN_2018_ZAF,ASN_2018_LSO,ASN_10798_ZAF,ASN_3491_ZAF,ASN_3491_TZA,ASN_3491_KEN,ASN_3491_MOZ,ASN_3491_ZMB,ASN_3491_TUN,ASN_13335_REU,ASN_13335_AGO,ASN_13335_DJI,ASN_13335_RWA,ASN_13335_MDG,ASN_13335_KEN,ASN_13335_NGA,ASN_13335_ZAF,ASN_13335_TZA,ASN_13335_MUS,ASN_13335_MAR,ASN_11179_ZAF"},{"id":"IXP_616","name":"Internet Exchange Point of Nigeria - Lagos","country":"NGA","latitude":6.620588026978623,"longitude":4.38828407841531,"customers":"ASN_13335_REU,ASN_13335_AGO,ASN_13335_DJI,ASN_13335_RWA,ASN_13335_MDG,ASN_13335_KEN,ASN_13335_NGA,ASN_13335_ZAF,ASN_13335_TZA,ASN_13335_MUS,ASN_13335_MAR,ASN_3491_ZAF,ASN_3491_TZA,ASN_3491_KEN,ASN_3491_MOZ,ASN_3491_ZMB,ASN_3491_TUN"},{"id":"IXP_1308","name":"NAPAfrica Cape Town","country":"ZAF","latitude":-32.71792119298277,"longitude":18.295856203101515,"customers":"ASN_3491_ZAF,ASN_3491_TZA,ASN_3491_KEN,ASN_3491_MOZ,ASN_3491_ZMB,ASN_3491_TUN,ASN_11845_ZAF,ASN_2018_ZAF,ASN_2018_LSO,ASN_10474_ZAF,ASN_13335_REU,ASN_13335_AGO,ASN_13335_DJI,ASN_13335_RWA,ASN_13335_MDG,ASN_13335_KEN,ASN_13335_NGA,ASN_13335_ZAF,ASN_13335_TZA,ASN_13335_MUS,ASN_13335_MAR,ASN_7020_ZAF,ASN_3356_NGA,ASN_3356_ZAF,ASN_3741_ZAF,ASN_3741_SYC,ASN_5713_ZAF,ASN_5713_KEN"},{"id":"IXP_209","name":"Johannesburg Internet Exchange","country":"ZAF","latitude":-24.976032125760717,"longitude":27.097568942566586,"customers":"ASN_3741_ZAF,ASN_3741_SYC,ASN_11845_ZAF,ASN_6083_ZAF,ASN_10474_ZAF,ASN_2018_ZAF,ASN_2018_LSO,ASN_13335_REU,ASN_13335_AGO,ASN_13335_DJI,ASN_13335_RWA,ASN_13335_MDG,ASN_13335_KEN,ASN_13335_NGA,ASN_13335_ZAF,ASN_13335_TZA,ASN_13335_MUS,ASN_13335_MAR,ASN_4134_ZAF,ASN_7020_ZAF,ASN_715_ZAF,ASN_715_MUS,ASN_715_EGY"},{"id":"IXP_1362","name":"Durban Internet eXchange","country":"ZAF","latitude":-28.883373623699487,"longitude":31.20685163765164,"customers":"ASN_3741_ZAF,ASN_3741_SYC,ASN_5713_ZAF,ASN_5713_KEN,ASN_11845_ZAF,ASN_10474_ZAF,ASN_2018_ZAF,ASN_2018_LSO,ASN_13335_REU,ASN_13335_AGO,ASN_13335_DJI,ASN_13335_RWA,ASN_13335_MDG,ASN_13335_KEN,ASN_13335_NGA,ASN_13335_ZAF,ASN_13335_TZA,ASN_13335_MUS,ASN_13335_MAR"},{"id":"IXP_143","name":"Kenya Internet Exchange Point","country":"KEN","latitude":-0.9107639456048393,"longitude":35.50400059942682,"customers":"ASN_4134_ZAF,ASN_3491_ZAF,ASN_3491_TZA,ASN_3491_KEN,ASN_3491_MOZ,ASN_3491_ZMB,ASN_3491_TUN"},{"id":"IXP_206","name":"Cape Town Internet Exchange","country":"ZAF","latitude":-33.432732836022055,"longitude":19.703959986749233,"customers":"ASN_3741_ZAF,ASN_3741_SYC,ASN_11845_ZAF,ASN_10474_ZAF,ASN_2018_ZAF,ASN_2018_LSO,ASN_13335_REU,ASN_13335_AGO,ASN_13335_DJI,ASN_13335_RWA,ASN_13335_MDG,ASN_13335_KEN,ASN_13335_NGA,ASN_13335_ZAF,ASN_13335_TZA,ASN_13335_MUS,ASN_13335_MAR"},{"id":"IXP_479","name":"Kinshasa Internet Exchange","country":"COD","latitude":-5.707107576853268,"longitude":15.473377502790271,"customers":""},{"id":"IXP_248","name":"Uganda Internet Exchange","country":"UGA","latitude":3.5479483910635667,"longitude":33.53506595985389,"customers":""},{"id":"IXP_242","name":"TIX Tanzania - Dar es Salaam","country":"TZA","latitude":-10.710903380093207,"longitude":39.04194287175445,"customers":"ASN_3741_ZAF,ASN_3741_SYC,ASN_11845_ZAF,ASN_6083_ZAF,ASN_10474_ZAF,ASN_2018_ZAF,ASN_2018_LSO,ASN_13335_REU,ASN_13335_AGO,ASN_13335_DJI,ASN_13335_RWA,ASN_13335_MDG,ASN_13335_KEN,ASN_13335_NGA,ASN_13335_ZAF,ASN_13335_TZA,ASN_13335_MUS,ASN_13335_MAR,ASN_3491_ZAF,ASN_3491_TZA,ASN_3491_KEN,ASN_3491_MOZ,ASN_3491_ZMB,ASN_3491_TUN,ASN_3300_ZAF,ASN_10310_ZAF,ASN_714_ZAF,ASN_11259_AGO"},{"id":"IXP_93","name":"Ghana Internet Exchange","country":"GHA","latitude":6.633835781799698,"longitude":-0.8719523320276564,"customers":""},{"id":"IXP_765","name":"Rwanda Internet exchange","country":"RWA","latitude":-2.156596586546986,"longitude":29.968002708955943,"customers":""},{"id":"IXP_932","name":"Angola Internet Exchange","country":"AGO","latitude":-8.05605643362221,"longitude":13.169375997715049,"customers":"ASN_11259_AGO"},{"id":"IXP_59","name":"Cairo Internet Exchange","country":"EGY","latitude":29.282991629596665,"longitude":30.004147538733093,"customers":""},{"id":"IXP_367","name":"Botswana Internet Exchange","country":"BWA","latitude":-23.218168871290708,"longitude":25.784928465581626,"customers":""},{"id":"IXP_156","name":"Mauritius Internet Exchange","country":"MUS","latitude":-20.24435,"longitude":57.49175,"customers":""},{"id":"IXP_547","name":"Zambia Internet Exchange Point","country":"ZMB","latitude":-15.291914769531038,"longitude":28.98797235533961,"customers":""},{"id":"IXP_606","name":"TIX Tanzania - Arusha","country":"TZA","latitude":-5.327491654346678,"longitude":35.59057935267159,"customers":""},{"id":"IXP_1312","name":"Sudan Internet Exchange Point","country":"SDN","latitude":15.720850320168507,"longitude":34.13137825255813,"customers":""},{"id":"IXP_158","name":"Mozambique Internet Exchange","country":"MOZ","latitude":-25.22330287474409,"longitude":33.02899079527964,"customers":"ASN_3491_ZAF,ASN_3491_TZA,ASN_3491_KEN,ASN_3491_MOZ,ASN_3491_ZMB,ASN_3491_TUN"},{"id":"IXP_1029","name":"Malawi IXP","country":"MWI","latitude":-15.272375421488155,"longitude":35.722649927637974,"customers":""},{"id":"IXP_593","name":"Middle East Internet eXchange","country":"EGY","latitude":30.800482643624175,"longitude":30.427372152791754,"customers":""},{"id":"IXP_60","name":"Cairo Regional Internet Exchange","country":"EGY","latitude":29.4986907438437,"longitude":30.185314081759884,"customers":""},{"id":"IXP_173","name":"Ibadan Internet Exchange","country":"NGA","latitude":7.077188789352566,"longitude":3.7275489157864814,"customers":""},{"id":"IXP_207","name":"Hub","country":"ZAF","latitude":-33.03811667138607,"longitude":18.549975258501107,"customers":""},{"id":"IXP_208","name":"Grahamstown Internet Exchange","country":"ZAF","latitude":-30.327167648120696,"longitude":26.180670752307886,"customers":""},{"id":"IXP_210","name":"South African Internet Exchange","country":"ZAF","latitude":-24.588165236639632,"longitude":27.91806497913032,"customers":""},{"id":"IXP_220","name":"Swaziland Internet Exchange","country":"SWZ","latitude":-26.67369847779422,"longitude":31.612423902344183,"customers":""},{"id":"IXP_364","name":"Zimbabwe Internet Exchange","country":"ZWE","latitude":-17.582992740932323,"longitude":29.437296390596828,"customers":""},{"id":"IXP_545","name":"Ponto de Intercambio Internet Angola","country":"AGO","latitude":-7.261841417723324,"longitude":14.115882478571136,"customers":"ASN_11259_AGO"},{"id":"IXP_546","name":"BurundiX Internet Exchange Point","country":"BDI","latitude":-2.8206779507121507,"longitude":30.14808666649059,"customers":""},{"id":"IXP_699","name":"Côte d'Ivoire Internet Exchange Point","country":"CIV","latitude":6.84975143844833,"longitude":-3.4307606209174724,"customers":""},{"id":"IXP_1207","name":"AMS-IX East Africa","country":"KEN","latitude":-3.8888288674637232,"longitude":38.79581607311956,"customers":""},{"id":"IXP_1303","name":"Lesotho Internet Exchange","country":"LSO","latitude":-29.62061285600847,"longitude":27.651644715842703,"customers":""},{"id":"IXP_1474","name":"Tunisian Internet Exchange Point","country":"TUN","latitude":36.387781036798245,"longitude":8.835608993706987,"customers":"ASN_2609_TUN"},{"id":"IXP_1887","name":"Gabon Internet Exchange","country":"GAB","latitude":0.18641275832033424,"longitude":10.769068061962297,"customers":""},{"id":"IXP_1840","name":"NAPAfrica Durban","country":"ZAF","latitude":-28.536065519993024,"longitude":31.916144954323652,"customers":"ASN_10474_ZAF,ASN_11845_ZAF,ASN_13335_REU,ASN_13335_AGO,ASN_13335_DJI,ASN_13335_RWA,ASN_13335_MDG,ASN_13335_KEN,ASN_13335_NGA,ASN_13335_ZAF,ASN_13335_TZA,ASN_13335_MUS,ASN_13335_MAR,ASN_2018_ZAF,ASN_2018_LSO,ASN_3741_ZAF,ASN_3741_SYC,ASN_5713_ZAF,ASN_5713_KEN"},{"id":"IXP_1848","name":"ANGONIX","country":"AGO","latitude":-7.180253334891198,"longitude":12.956503738937801,"customers":"ASN_11845_ZAF,ASN_11259_AGO"},{"id":"IXP_1929","name":"DjIX","country":"DJI","latitude":11.347852795105757,"longitude":43.06622541081772,"customers":""},{"id":"IXP_2075","name":"Asteroid Mombasa","country":"KEN","latitude":-0.7250588185045603,"longitude":39.738459121168546,"customers":""},{"id":"IXP_1839","name":"Burkina Faso IXP","country":"BFA","latitude":14.1866823180516,"longitude":-0.386384234621719,"customers":""},{"id":"IXP_2055","name":"Douala IXP","country":"CMR","latitude":5.07549703419177,"longitude":8.926262757442743,"customers":""},{"id":"IXP_1884","name":"Internet Exchange Point of Nigeria - Abuja","country":"NGA","latitude":9.410794606635019,"longitude":7.825193496761965,"customers":""},{"id":"IXP_1811","name":"Serrekunda Internet Exchange Point","country":"GMB","latitude":13.541085042723132,"longitude":-15.640255692860718,"customers":""},{"id":"IXP_1801","name":"Côte d'Ivoire Internet Exchange Point","country":"CIV","latitude":5.6106807227093505,"longitude":-4.399116095054884,"customers":""},{"id":"IXP_1838","name":"Benin IX","country":"BEN","latitude":6.892738932098821,"longitude":1.7042907503318672,"customers":""},{"id":"IXP_1928","name":"Senegal IX","country":"SEN","latitude":14.851586589240828,"longitude":-16.433072147116302,"customers":""},{"id":"IXP_2070","name":"IXP-GUINEE","country":"GIN","latitude":11.384371246926518,"longitude":-13.521128758812477,"customers":""},{"id":"IXP_1973","name":"Togo Internet Exchange Point","country":"TGO","latitude":7.3064990930910465,"longitude":1.3362964392190726,"customers":""},{"id":"IXP_2019","name":"Mali IXP","country":"MLI","latitude":13.030693906585784,"longitude":-8.7298356110966,"customers":""},{"id":"IXP_1924","name":"Mombasa Internet Exchange Point","country":"KEN","latitude":-2.48354596291382,"longitude":40.219086383641276,"customers":""},{"id":"IXP_1993","name":"Harare Internet Exchange","country":"ZWE","latitude":-19.318754339370003,"longitude":32.122645577111165,"customers":""},{"id":"IXP_1784","name":"Windhoek IXP","country":"NAM","latitude":-20.089370533258073,"longitude":18.124596609094528,"customers":""},{"id":"IXP_1885","name":"Internet Exchange Point of Nigeria - Port Harcourt","country":"NGA","latitude":4.9029793500821155,"longitude":8.290970658836352,"customers":""},{"id":"IXP_1911","name":"Dodoma Internet Exchange Point","country":"TZA","latitude":-2.1071511598767456,"longitude":34.8174474145423,"customers":""},{"id":"IXP_1881","name":"Madagascar Global Internet Exchange","country":"MDG","latitude":-17.68393189919117,"longitude":46.30326110681335,"customers":""},{"id":"IXP_2036","name":"Zanzibar Internet Exchange Point","country":"TZA","latitude":-5.605217139989743,"longitude":38.709347597217715,"customers":""},{"id":"IXP_1952","name":"Cameroon Internet Exchange Point","country":"CMR","latitude":3.6277870731742645,"longitude":11.617033144491796,"customers":""},{"id":"IXP_1992","name":"Burundi Internet Exchange Point","country":"BDI","latitude":-3.5734122561878907,"longitude":29.334253497424854,"customers":""},{"id":"IXP_1897","name":"Liberia Internet Exchange Point","country":"LBR","latitude":6.760475440139109,"longitude":-10.328022046375606,"customers":""},{"id":"IXP_1912","name":"Mwanza Internet Exchange Point","country":"TZA","latitude":-7.539834094335655,"longitude":31.793408496523302,"customers":""},{"id":"IXP_1541","name":"Congo Brazzaville IX","country":"COG","latitude":-4.149312530578831,"longitude":13.787005803737149,"customers":""},{"id":"IXP_2072","name":"Somali Internet Exchange Point ","country":"SOM","latitude":1.7871681834954378,"longitude":44.45950732568611,"customers":""},{"id":"IXP_1909","name":"Lubumbashi Internet Exchange","country":"COD","latitude":-11.182613202788312,"longitude":26.76239670825392,"customers":""},{"id":"IXP_1917","name":"Casablanca Internet Exchange","country":"MAR","latitude":32.053850402775254,"longitude":-6.439261452365317,"customers":""},{"id":"IXP_1805","name":"Enfidha Internet Exchange","country":"TUN","latitude":36.01445354541705,"longitude":9.327853332585407,"customers":""},{"id":"IXP_1925","name":"Lesotho Internet Exchange Point","country":"LSO","latitude":-29.581670964656144,"longitude":28.631845942009548,"customers":""},{"id":"IXP_2145","name":"Tchad Internet Exchange Point ","country":"TCD","latitude":13.716029754880424,"longitude":14.64352723546341,"customers":""},{"id":"IXP_2068","name":"West African Internet Exchange","country":"NGA","latitude":7.652223875646079,"longitude":3.168056252309041,"customers":""},{"id":"IXP_1574","name":"CG-IX Pointe-Noire","country":"COG","latitude":-4.123082151326102,"longitude":12.267781860191969,"customers":""},{"id":"IXP_1708","name":"Algeria Internet Exchange","country":"DZA","latitude":36.27197549842875,"longitude":3.3908065776155896,"customers":""},{"id":"IXP_1804","name":"Mbabane Internet Exchange","country":"SWZ","latitude":-26.914136512027113,"longitude":31.937961722001816,"customers":""},{"id":"IXP_1843","name":"Seychelles Internet Exchange Point","country":"SYC","latitude":-4.61764,"longitude":55.44766,"customers":""},{"id":"IXP_1886","name":"Internet Exchange Point of Nigeria - Kano","country":"NGA","latitude":12.941911032195287,"longitude":7.830042297467997,"customers":""},{"id":"IXP_1888","name":"Mauritania IX","country":"MRT","latitude":18.72434667761869,"longitude":-14.360939186553336,"customers":""},{"id":"IXP_1904","name":"RIMIX","country":"MRT","latitude":17.076896951053218,"longitude":-14.992200451868555,"customers":""},{"id":"IXP_1910","name":"Goma Internet Exchange","country":"COD","latitude":-4.041784257545007,"longitude":29.123988769103182,"customers":""},{"id":"IXP_1921","name":"Niger Internet Exchange","country":"NER","latitude":15.248878336592021,"longitude":3.0214071679797847,"customers":""},{"id":"IXP_1955","name":"Maroc Internet Exchange Point","country":"MAR","latitude":32.83591328762964,"longitude":-7.677765384573391,"customers":""}]