[{"id":"IXP_1306","name":"NAPAfrica Johannesburg","country":"ZAF","latitude":-25.640180870139716,"longitude":28.71953303274698,"customers":"ASN_7020_ZAF,ASN_4134_ZAF,ASN_6083_ZAF,ASN_3257_ZAF,ASN_3300_ZAF,ASN_10310_ZAF,ASN_5713_ZAF,ASN_5713_KEN,ASN_10474_ZAF,ASN_3741_ZAF,ASN_3741_SYC,ASN_714_ZAF,ASN_3356_NGA,ASN_3356_ZAF,ASN_11845_ZAF,ASN_2018_ZAF,ASN_2018_LSO,ASN_10798_ZAF,ASN_3491_ZAF,ASN_3491_TZA,ASN_3491_KEN,ASN_3491_MOZ,ASN_3491_ZMB,ASN_3491_TUN,ASN_13335_REU,ASN_13335_AGO,ASN_13335_DJI,ASN_13335_RWA,ASN_13335_MDG,ASN_13335_KEN,ASN_13335_NGA,ASN_13335_ZAF,ASN_13335_TZA,ASN_13335_MUS,ASN_13335_MAR,ASN_11179_ZAF"},{"id":"IXP_616","name":"Internet Exchange Point of Nigeria - Lagos","country":"NGA","latitude":7.107813240716877,"longitude":3.3438541996160374,"customers":"ASN_13335_REU,ASN_13335_AGO,ASN_13335_DJI,ASN_13335_RWA,ASN_13335_MDG,ASN_13335_KEN,ASN_13335_NGA,ASN_13335_ZAF,ASN_13335_TZA,ASN_13335_MUS,ASN_13335_MAR,ASN_3491_ZAF,ASN_3491_TZA,ASN_3491_KEN,ASN_3491_MOZ,ASN_3491_ZMB,ASN_3491_TUN"},{"id":"IXP_1308","name":"NAPAfrica Cape Town","country":"ZAF","latitude":-33.64789219767505,"longitude":20.059554541718274,"customers":"ASN_3491_ZAF,ASN_3491_TZA,ASN_3491_KEN,ASN_3491_MOZ,ASN_3491_ZMB,ASN_3491_TUN,ASN_11845_ZAF,ASN_2018_ZAF,ASN_2018_LSO,ASN_10474_ZAF,ASN_13335_REU,ASN_13335_AGO,ASN_13335_DJI,ASN_13335_RWA,ASN_13335_MDG,ASN_13335_KEN,ASN_13335_NGA,ASN_13335_ZAF,ASN_13335_TZA,ASN_13335_MUS,ASN_13335_MAR,ASN_7020_ZAF,ASN_3356_NGA,ASN_3356_ZAF,ASN_3741_ZAF,ASN_3741_SYC,ASN_5713_ZAF,ASN_5713_KEN"},{"id":"IXP_209","name":"Johannesburg Internet Exchange","country":"ZAF","latitude":-25.3085913213113,"longitude":28.468624284770048,"customers":"ASN_3741_ZAF,ASN_3741_SYC,ASN_11845_ZAF,ASN_6083_ZAF,ASN_10474_ZAF,ASN_2018_ZAF,ASN_2018_LSO,ASN_13335_REU,ASN_13335_AGO,ASN_13335_DJI,ASN_13335_RWA,ASN_13335_MDG,ASN_13335_KEN,ASN_13335_NGA,ASN_13335_ZAF,ASN_13335_TZA,ASN_13335_MUS,ASN_13335_MAR,ASN_4134_ZAF,ASN_7020_ZAF,ASN_715_ZAF,ASN_715_MUS,ASN_715_EGY"},{"id":"IXP_1362","name":"Durban Internet eXchange","country":"ZAF","latitude":-29.582552275496262,"longitude":31.15482411402106,"customers":"ASN_3741_ZAF,ASN_3741_SYC,ASN_5713_ZAF,ASN_5713_KEN,ASN_11845_ZAF,ASN_10474_ZAF,ASN_2018_ZAF,ASN_2018_LSO,ASN_13335_REU,ASN_13335_AGO,ASN_13335_DJI,ASN_13335_RWA,ASN_13335_MDG,ASN_13335_KEN,ASN_13335_NGA,ASN_13335_ZAF,ASN_13335_TZA,ASN_13335_MUS,ASN_13335_MAR"},{"id":"IXP_143","name":"Kenya Internet Exchange Point","country":"KEN","latitude":0.4950986115628775,"longitude":36.98384374726055,"customers":"ASN_3491_ZAF,ASN_3491_TZA,ASN_3491_KEN,ASN_3491_MOZ,ASN_3491_ZMB,ASN_3491_TUN"},{"id":"IXP_206","name":"Cape Town Internet Exchange","country":"ZAF","latitude":-33.32523533414236,"longitude":19.311392155075662,"customers":"ASN_3741_ZAF,ASN_3741_SYC,ASN_11845_ZAF,ASN_10474_ZAF,ASN_2018_ZAF,ASN_2018_LSO,ASN_13335_REU,ASN_13335_AGO,ASN_13335_DJI,ASN_13335_RWA,ASN_13335_MDG,ASN_13335_KEN,ASN_13335_NGA,ASN_13335_ZAF,ASN_13335_TZA,ASN_13335_MUS,ASN_13335_MAR"},{"id":"IXP_479","name":"Kinshasa Internet Exchange","country":"COD","latitude":-5.794413312862312,"longitude":14.863594920179457,"customers":""},{"id":"IXP_248","name":"Uganda Internet Exchange","country":"UGA","latitude":0.5020628835559677,"longitude":32.08470483869866,"customers":""},{"id":"IXP_242","name":"TIX Tanzania - Dar es Salaam","country":"TZA","latitude":-8.459949766433454,"longitude":38.80616509731413,"customers":"ASN_3741_ZAF,ASN_3741_SYC,ASN_11845_ZAF,ASN_6083_ZAF,ASN_10474_ZAF,ASN_2018_ZAF,ASN_2018_LSO,ASN_13335_REU,ASN_13335_AGO,ASN_13335_DJI,ASN_13335_RWA,ASN_13335_MDG,ASN_13335_KEN,ASN_13335_NGA,ASN_13335_ZAF,ASN_13335_TZA,ASN_13335_MUS,ASN_13335_MAR,ASN_3491_ZAF,ASN_3491_TZA,ASN_3491_KEN,ASN_3491_MOZ,ASN_3491_ZMB,ASN_3491_TUN,ASN_3300_ZAF,ASN_10310_ZAF,ASN_714_ZAF,ASN_11259_AGO"},{"id":"IXP_93","name":"Ghana Internet Exchange","country":"GHA","latitude":5.997380043531001,"longitude":-0.15970453769067475,"customers":""},{"id":"IXP_765","name":"Rwanda Internet exchange","country":"RWA","latitude":-1.695739688034775,"longitude":30.237960836147973,"customers":""},{"id":"IXP_932","name":"Angola Internet Exchange","country":"AGO","latitude":-7.877877545905562,"longitude":13.985967152136004,"customers":"ASN_11259_AGO"},{"id":"IXP_59","name":"Cairo Internet Exchange","country":"EGY","latitude":31.076473261192692,"longitude":31.681771601162858,"customers":""},{"id":"IXP_367","name":"Botswana Internet Exchange","country":"BWA","latitude":-23.974024122783895,"longitude":25.44262986587854,"customers":""},{"id":"IXP_156","name":"Mauritius Internet Exchange","country":"MUS","latitude":-20.24435,"longitude":57.49175,"customers":""},{"id":"IXP_547","name":"Zambia Internet Exchange Point","country":"ZMB","latitude":-15.791216036298543,"longitude":27.643634587258553,"customers":""},{"id":"IXP_606","name":"TIX Tanzania - Arusha","country":"TZA","latitude":-6.174140949647199,"longitude":36.93780590284241,"customers":""},{"id":"IXP_1312","name":"Sudan Internet Exchange Point","country":"SDN","latitude":17.463687296868436,"longitude":33.57934003114738,"customers":""},{"id":"IXP_158","name":"Mozambique Internet Exchange","country":"MOZ","latitude":-23.408682961018194,"longitude":32.31520473911276,"customers":"ASN_3491_ZAF,ASN_3491_TZA,ASN_3491_KEN,ASN_3491_MOZ,ASN_3491_ZMB,ASN_3491_TUN"},{"id":"IXP_1029","name":"Malawi IXP","country":"MWI","latitude":-15.568230185512514,"longitude":34.77108027514631,"customers":""},{"id":"IXP_593","name":"Middle East Internet eXchange","country":"EGY","latitude":30.266471086472798,"longitude":32.70082588557082,"customers":""},{"id":"IXP_60","name":"Cairo Regional Internet Exchange","country":"EGY","latitude":31.047536734539598,"longitude":32.2765310882166,"customers":""},{"id":"IXP_173","name":"Ibadan Internet Exchange","country":"NGA","latitude":8.445619033847901,"longitude":4.220384056330733,"customers":""},{"id":"IXP_207","name":"Hub","country":"ZAF","latitude":-32.53605807843324,"longitude":18.84031283381703,"customers":""},{"id":"IXP_208","name":"Grahamstown Internet Exchange","country":"ZAF","latitude":-30.27125379650089,"longitude":25.68292114187651,"customers":""},{"id":"IXP_210","name":"South African Internet Exchange","country":"ZAF","latitude":-27.553929772521652,"longitude":28.753741117864973,"customers":""},{"id":"IXP_220","name":"Swaziland Internet Exchange","country":"SWZ","latitude":-26.202230990999094,"longitude":31.684508160990482,"customers":""},{"id":"IXP_364","name":"Zimbabwe Internet Exchange","country":"ZWE","latitude":-18.115506751237106,"longitude":29.417832321070254,"customers":""},{"id":"IXP_545","name":"Ponto de Intercambio Internet Angola","country":"AGO","latitude":-10.688702360654814,"longitude":13.667764137488746,"customers":"ASN_11259_AGO"},{"id":"IXP_546","name":"BurundiX Internet Exchange Point","country":"BDI","latitude":-2.374873427304308,"longitude":30.154004853547672,"customers":""},{"id":"IXP_699","name":"Côte d'Ivoire Internet Exchange Point","country":"CIV","latitude":5.742950281124714,"longitude":-3.0472421811170296,"customers":""},{"id":"IXP_1207","name":"AMS-IX East Africa","country":"KEN","latitude":-1.678674560847436,"longitude":39.481469213798306,"customers":""},{"id":"IXP_1303","name":"Lesotho Internet Exchange","country":"LSO","latitude":-29.20603907513804,"longitude":27.949327962763654,"customers":""},{"id":"IXP_1474","name":"Tunisian Internet Exchange Point","country":"TUN","latitude":34.85957369855913,"longitude":10.012368094249322,"customers":"ASN_2609_TUN"},{"id":"IXP_1887","name":"Gabon Internet Exchange","country":"GAB","latitude":-0.9916049449457905,"longitude":9.407388853428293,"customers":""},{"id":"IXP_1840","name":"NAPAfrica Durban","country":"ZAF","latitude":-30.245866095510838,"longitude":30.55371401222141,"customers":"ASN_10474_ZAF,ASN_11845_ZAF,ASN_13335_REU,ASN_13335_AGO,ASN_13335_DJI,ASN_13335_RWA,ASN_13335_MDG,ASN_13335_KEN,ASN_13335_NGA,ASN_13335_ZAF,ASN_13335_TZA,ASN_13335_MUS,ASN_13335_MAR,ASN_2018_ZAF,ASN_2018_LSO,ASN_3741_ZAF,ASN_3741_SYC,ASN_5713_ZAF,ASN_5713_KEN"},{"id":"IXP_1848","name":"ANGONIX","country":"AGO","latitude":-8.838460935426564,"longitude":14.61519674995867,"customers":"ASN_11845_ZAF,ASN_11259_AGO"},{"id":"IXP_1929","name":"DjIX","country":"DJI","latitude":11.576018490130243,"longitude":42.61924186662282,"customers":""},{"id":"IXP_1839","name":"Burkina Faso IXP","country":"BFA","latitude":14.755551764082247,"longitude":-0.8031692043853594,"customers":""},{"id":"IXP_2075","name":"Asteroid Mombasa","country":"KEN","latitude":-2.2533139452452833,"longitude":38.24322601711327,"customers":""},{"id":"IXP_2055","name":"Douala IXP","country":"CMR","latitude":4.220698639725284,"longitude":11.133945299772257,"customers":""},{"id":"IXP_1884","name":"Internet Exchange Point of Nigeria - Abuja","country":"NGA","latitude":8.246394904548696,"longitude":8.055642473603157,"customers":""},{"id":"IXP_1838","name":"Benin IX","country":"BEN","latitude":6.904005467141307,"longitude":2.5642289277411505,"customers":""},{"id":"IXP_1811","name":"Serrekunda Internet Exchange Point","country":"GMB","latitude":13.479194415804786,"longitude":-16.01870266649822,"customers":""},{"id":"IXP_1801","name":"Côte d'Ivoire Internet Exchange Point","country":"CIV","latitude":5.931164421785054,"longitude":-3.451193328389152,"customers":""},{"id":"IXP_1924","name":"Mombasa Internet Exchange Point","country":"KEN","latitude":-1.9074183687518547,"longitude":40.22952008699034,"customers":""},{"id":"IXP_1928","name":"Senegal IX","country":"SEN","latitude":13.97018864283724,"longitude":-16.33870464173007,"customers":""},{"id":"IXP_1993","name":"Harare Internet Exchange","country":"ZWE","latitude":-18.932449974492254,"longitude":31.08167314733775,"customers":""},{"id":"IXP_2070","name":"IXP-GUINEE","country":"GIN","latitude":10.252051374074705,"longitude":-12.569057886502502,"customers":""},{"id":"IXP_2019","name":"Mali IXP","country":"MLI","latitude":14.299559535575392,"longitude":-8.71217580455326,"customers":""},{"id":"IXP_1973","name":"Togo Internet Exchange Point","country":"TGO","latitude":8.465290967336697,"longitude":1.0286827528061007,"customers":""},{"id":"IXP_1784","name":"Windhoek IXP","country":"NAM","latitude":-19.37918920710198,"longitude":17.455093253348522,"customers":""},{"id":"IXP_1885","name":"Internet Exchange Point of Nigeria - Port Harcourt","country":"NGA","latitude":4.99538783036416,"longitude":6.3744990146876095,"customers":""},{"id":"IXP_1911","name":"Dodoma Internet Exchange Point","country":"TZA","latitude":-7.383338072470235,"longitude":35.34047032436118,"customers":""},{"id":"IXP_1881","name":"Madagascar Global Internet Exchange","country":"MDG","latitude":-20.55559659126816,"longitude":47.80571086825758,"customers":""},{"id":"IXP_2036","name":"Zanzibar Internet Exchange Point","country":"TZA","latitude":-6.099719983333603,"longitude":38.24609039299709,"customers":""},{"id":"IXP_1952","name":"Cameroon Internet Exchange Point","country":"CMR","latitude":4.124956702170819,"longitude":10.954917651432694,"customers":""},{"id":"IXP_1992","name":"Burundi Internet Exchange Point","country":"BDI","latitude":-3.707642717159465,"longitude":30.236679149573472,"customers":""},{"id":"IXP_1897","name":"Liberia Internet Exchange Point","country":"LBR","latitude":6.634449172103771,"longitude":-10.981179746716792,"customers":""},{"id":"IXP_1912","name":"Mwanza Internet Exchange Point","country":"TZA","latitude":-4.20231963771805,"longitude":32.2110421216483,"customers":""},{"id":"IXP_1541","name":"Congo Brazzaville IX","country":"COG","latitude":-4.035599643808893,"longitude":15.408549299135677,"customers":""},{"id":"IXP_2072","name":"Somali Internet Exchange Point ","country":"SOM","latitude":2.4833198789578272,"longitude":45.289117273216384,"customers":""},{"id":"IXP_2145","name":"Tchad Internet Exchange Point ","country":"TCD","latitude":14.034351109330062,"longitude":14.424674180517936,"customers":""},{"id":"IXP_1909","name":"Lubumbashi Internet Exchange","country":"COD","latitude":-10.750059843660454,"longitude":28.330020624293464,"customers":""},{"id":"IXP_1925","name":"Lesotho Internet Exchange Point","country":"LSO","latitude":-28.887018318982022,"longitude":28.30256358639059,"customers":""},{"id":"IXP_1917","name":"Casablanca Internet Exchange","country":"MAR","latitude":30.43885996588199,"longitude":-7.5698291455893605,"customers":""},{"id":"IXP_1805","name":"Enfidha Internet Exchange","country":"TUN","latitude":33.51582590916675,"longitude":9.441322318146302,"customers":""},{"id":"IXP_2068","name":"West African Internet Exchange","country":"NGA","latitude":7.584199714843068,"longitude":3.737309022110335,"customers":""},{"id":"IXP_1574","name":"CG-IX Pointe-Noire","country":"COG","latitude":-3.6395355436765104,"longitude":11.568531464521186,"customers":""},{"id":"IXP_1708","name":"Algeria Internet Exchange","country":"DZA","latitude":35.91310401133976,"longitude":2.5379696415680737,"customers":""},{"id":"IXP_1804","name":"Mbabane Internet Exchange","country":"SWZ","latitude":-26.50083920199605,"longitude":31.75668133918348,"customers":""},{"id":"IXP_1843","name":"Seychelles Internet Exchange Point","country":"SYC","latitude":-4.61764,"longitude":55.44766,"customers":""},{"id":"IXP_1886","name":"Internet Exchange Point of Nigeria - Kano","country":"NGA","latitude":10.32741663167615,"longitude":8.529369619728042,"customers":""},{"id":"IXP_1888","name":"Mauritania IX","country":"MRT","latitude":17.764247788066353,"longitude":-16.187583749469827,"customers":""},{"id":"IXP_1904","name":"RIMIX","country":"MRT","latitude":17.619650144691164,"longitude":-15.714961221236916,"customers":""},{"id":"IXP_1910","name":"Goma Internet Exchange","country":"COD","latitude":-3.195220905448311,"longitude":28.084641523227102,"customers":""},{"id":"IXP_1921","name":"Niger Internet Exchange","country":"NER","latitude":15.143719595541077,"longitude":1.4573454432543462,"customers":""},{"id":"IXP_1955","name":"Maroc Internet Exchange Point","country":"MAR","latitude":35.08779478398159,"longitude":-6.117788051351383,"customers":""}]