[{"id":"IXP_1306","name":"NAPAfrica Johannesburg","country":"ZAF","latitude":-26.41709122864021,"longitude":29.853370517867607,"customers":"ASN_11744_ZAF,ASN_24691_TGO,ASN_7020_ZAF,ASN_6968_ZAF,ASN_4134_ZAF,ASN_6083_ZAF,ASN_14115_ZAF,ASN_3257_ZAF,ASN_21859_ZAF,ASN_21859_NGA,ASN_3300_ZAF,ASN_10310_ZAF,ASN_22822_ZAF,ASN_16509_ZAF,ASN_5713_ZAF,ASN_5713_KEN,ASN_10474_ZAF,ASN_15695_MAR,ASN_3741_ZAF,ASN_3741_SYC,ASN_714_ZAF,ASN_42_TUN,ASN_42_ZAF,ASN_19551_ZAF,ASN_25818_ZAF,ASN_25818_KEN,ASN_16637_ZAF,ASN_16637_NAM,ASN_16637_LBR,ASN_16637_BWA,ASN_16637_ZMB,ASN_16637_MUS,ASN_20940_ZAF,ASN_3356_NGA,ASN_3356_ZAF,ASN_11845_ZAF,ASN_2018_ZAF,ASN_2018_LSO,ASN_10798_ZAF,ASN_19711_SWZ,ASN_14988_BWA,ASN_14988_ZAF,ASN_14988_CIV,ASN_15022_ZAF,ASN_3491_ZAF,ASN_3491_TZA,ASN_3491_KEN,ASN_3491_MOZ,ASN_3491_ZMB,ASN_3491_TUN,ASN_11179_ZAF"},{"id":"IXP_616","name":"Internet Exchange Point of Nigeria - Lagos","country":"NGA","latitude":7.50311356462427,"longitude":4.1447510717718155,"customers":"ASN_42_TUN,ASN_42_ZAF,ASN_21859_ZAF,ASN_21859_NGA,ASN_3491_ZAF,ASN_3491_TZA,ASN_3491_KEN,ASN_3491_MOZ,ASN_3491_ZMB,ASN_3491_TUN"},{"id":"IXP_1308","name":"NAPAfrica Cape Town","country":"ZAF","latitude":-33.94460787177328,"longitude":18.286093390073873,"customers":"ASN_3491_ZAF,ASN_3491_TZA,ASN_3491_KEN,ASN_3491_MOZ,ASN_3491_ZMB,ASN_3491_TUN,ASN_42_TUN,ASN_42_ZAF,ASN_11845_ZAF,ASN_16637_ZAF,ASN_16637_NAM,ASN_16637_LBR,ASN_16637_BWA,ASN_16637_ZMB,ASN_16637_MUS,ASN_2018_ZAF,ASN_2018_LSO,ASN_15022_ZAF,ASN_16509_ZAF,ASN_20940_ZAF,ASN_10474_ZAF,ASN_25818_ZAF,ASN_25818_KEN,ASN_7020_ZAF,ASN_3356_NGA,ASN_3356_ZAF,ASN_3741_ZAF,ASN_3741_SYC,ASN_14115_ZAF,ASN_5713_ZAF,ASN_5713_KEN"},{"id":"IXP_209","name":"Johannesburg Internet Exchange","country":"ZAF","latitude":-27.03321631110653,"longitude":28.29116867761071,"customers":"ASN_3741_ZAF,ASN_3741_SYC,ASN_42_TUN,ASN_42_ZAF,ASN_16637_ZAF,ASN_16637_NAM,ASN_16637_LBR,ASN_16637_BWA,ASN_16637_ZMB,ASN_16637_MUS,ASN_11845_ZAF,ASN_6083_ZAF,ASN_10474_ZAF,ASN_6968_ZAF,ASN_2018_ZAF,ASN_2018_LSO,ASN_15022_ZAF,ASN_4134_ZAF,ASN_7020_ZAF,ASN_715_ZAF,ASN_715_MUS,ASN_715_EGY,ASN_19711_SWZ"},{"id":"IXP_1362","name":"Durban Internet eXchange","country":"ZAF","latitude":-29.594068354360385,"longitude":30.198562291351983,"customers":"ASN_3741_ZAF,ASN_3741_SYC,ASN_5713_ZAF,ASN_5713_KEN,ASN_20011_ZAF,ASN_42_TUN,ASN_42_ZAF,ASN_11845_ZAF,ASN_10474_ZAF,ASN_2018_ZAF,ASN_2018_LSO"},{"id":"IXP_143","name":"Kenya Internet Exchange Point","country":"KEN","latitude":-1.4207443729153506,"longitude":37.37312459633574,"customers":"ASN_15399_KEN,ASN_15399_TZA,ASN_15399_UGA,ASN_15399_NGA,ASN_15808_KEN,ASN_12455_KEN,ASN_25818_ZAF,ASN_25818_KEN,ASN_42_TUN,ASN_42_ZAF,ASN_4134_ZAF,ASN_3491_ZAF,ASN_3491_TZA,ASN_3491_KEN,ASN_3491_MOZ,ASN_3491_ZMB,ASN_3491_TUN,ASN_16509_ZAF,ASN_16637_ZAF,ASN_16637_NAM,ASN_16637_LBR,ASN_16637_BWA,ASN_16637_ZMB,ASN_16637_MUS,ASN_9129_KEN"},{"id":"IXP_206","name":"Cape Town Internet Exchange","country":"ZAF","latitude":-33.91654925497971,"longitude":19.891371895064125,"customers":"ASN_3741_ZAF,ASN_3741_SYC,ASN_11845_ZAF,ASN_10474_ZAF,ASN_16637_ZAF,ASN_16637_NAM,ASN_16637_LBR,ASN_16637_BWA,ASN_16637_ZMB,ASN_16637_MUS,ASN_2018_ZAF,ASN_2018_LSO,ASN_15022_ZAF,ASN_20940_ZAF,ASN_42_TUN,ASN_42_ZAF,ASN_16509_ZAF"},{"id":"IXP_479","name":"Kinshasa Internet Exchange","country":"COD","latitude":-4.088651064632559,"longitude":15.954006054140613,"customers":""},{"id":"IXP_248","name":"Uganda Internet Exchange","country":"UGA","latitude":1.5171455298548806,"longitude":31.985974821751203,"customers":"ASN_20294_UGA,ASN_21491_UGA,ASN_42_TUN,ASN_42_ZAF,ASN_20940_ZAF,ASN_12491_UGA,ASN_12491_COD,ASN_12491_GAB"},{"id":"IXP_242","name":"TIX Tanzania - Dar es Salaam","country":"TZA","latitude":-9.28887453629882,"longitude":38.81595190444986,"customers":"ASN_20940_ZAF,ASN_42_TUN,ASN_42_ZAF,ASN_3741_ZAF,ASN_3741_SYC,ASN_16637_ZAF,ASN_16637_NAM,ASN_16637_LBR,ASN_16637_BWA,ASN_16637_ZMB,ASN_16637_MUS,ASN_11845_ZAF,ASN_6083_ZAF,ASN_10474_ZAF,ASN_6968_ZAF,ASN_2018_ZAF,ASN_2018_LSO,ASN_15022_ZAF,ASN_3491_ZAF,ASN_3491_TZA,ASN_3491_KEN,ASN_3491_MOZ,ASN_3491_ZMB,ASN_3491_TUN,ASN_3300_ZAF,ASN_25818_ZAF,ASN_25818_KEN,ASN_10310_ZAF,ASN_19551_ZAF,ASN_16509_ZAF,ASN_714_ZAF,ASN_15706_SDN,ASN_15706_TCD,ASN_11259_AGO,ASN_15399_KEN,ASN_15399_TZA,ASN_15399_UGA,ASN_15399_NGA,ASN_15808_KEN,ASN_12455_KEN,ASN_21859_ZAF,ASN_21859_NGA,ASN_22822_ZAF"},{"id":"IXP_93","name":"Ghana Internet Exchange","country":"GHA","latitude":7.1514640339227515,"longitude":-0.018141583051867832,"customers":"ASN_42_TUN,ASN_42_ZAF,ASN_20940_ZAF"},{"id":"IXP_765","name":"Rwanda Internet exchange","country":"RWA","latitude":-1.5657465268018025,"longitude":29.897881064775873,"customers":"ASN_21174_RWA"},{"id":"IXP_932","name":"Angola Internet Exchange","country":"AGO","latitude":-6.9976300188433775,"longitude":12.880452845584244,"customers":"ASN_11259_AGO,ASN_42_TUN,ASN_42_ZAF"},{"id":"IXP_59","name":"Cairo Internet Exchange","country":"EGY","latitude":29.699537184617526,"longitude":33.09508584887888,"customers":""},{"id":"IXP_367","name":"Botswana Internet Exchange","country":"BWA","latitude":-23.07589124115779,"longitude":25.807313070597417,"customers":""},{"id":"IXP_156","name":"Mauritius Internet Exchange","country":"MUS","latitude":-20.24435,"longitude":57.49175,"customers":"ASN_42_TUN,ASN_42_ZAF"},{"id":"IXP_547","name":"Zambia Internet Exchange Point","country":"ZMB","latitude":-15.458097965340976,"longitude":29.556667160985235,"customers":""},{"id":"IXP_606","name":"TIX Tanzania - Arusha","country":"TZA","latitude":-3.03930145344309,"longitude":35.944261972726494,"customers":"ASN_42_TUN,ASN_42_ZAF"},{"id":"IXP_1312","name":"Sudan Internet Exchange Point","country":"SDN","latitude":13.558709014602988,"longitude":31.61239457527274,"customers":"ASN_15706_SDN,ASN_15706_TCD,ASN_42_TUN,ASN_42_ZAF"},{"id":"IXP_158","name":"Mozambique Internet Exchange","country":"MOZ","latitude":-23.776135866876853,"longitude":33.37628861042598,"customers":"ASN_3491_ZAF,ASN_3491_TZA,ASN_3491_KEN,ASN_3491_MOZ,ASN_3491_ZMB,ASN_3491_TUN"},{"id":"IXP_1029","name":"Malawi IXP","country":"MWI","latitude":-16.206277143124158,"longitude":34.583867187131816,"customers":""},{"id":"IXP_593","name":"Middle East Internet eXchange","country":"EGY","latitude":30.08182689476753,"longitude":30.96556277038005,"customers":""},{"id":"IXP_60","name":"Cairo Regional Internet Exchange","country":"EGY","latitude":28.428933590148954,"longitude":31.173103073538172,"customers":""},{"id":"IXP_173","name":"Ibadan Internet Exchange","country":"NGA","latitude":8.355751542901368,"longitude":2.8656011953542633,"customers":""},{"id":"IXP_207","name":"Hub","country":"ZAF","latitude":-33.74956789920324,"longitude":19.794108639360164,"customers":""},{"id":"IXP_208","name":"Grahamstown Internet Exchange","country":"ZAF","latitude":-28.386408787110646,"longitude":26.548076025673573,"customers":""},{"id":"IXP_210","name":"South African Internet Exchange","country":"ZAF","latitude":-27.92038020782482,"longitude":28.142541913621272,"customers":""},{"id":"IXP_220","name":"Swaziland Internet Exchange","country":"SWZ","latitude":-26.56090565387602,"longitude":30.971820154077044,"customers":""},{"id":"IXP_364","name":"Zimbabwe Internet Exchange","country":"ZWE","latitude":-16.566661960122893,"longitude":29.720190291248514,"customers":""},{"id":"IXP_545","name":"Ponto de Intercambio Internet Angola","country":"AGO","latitude":-8.15876628607348,"longitude":13.185438866226196,"customers":"ASN_11259_AGO,ASN_42_TUN,ASN_42_ZAF"},{"id":"IXP_546","name":"BurundiX Internet Exchange Point","country":"BDI","latitude":-3.9891908703957397,"longitude":30.013476589805364,"customers":""},{"id":"IXP_699","name":"Côte d'Ivoire Internet Exchange Point","country":"CIV","latitude":5.607500520019233,"longitude":-4.64399944148743,"customers":""},{"id":"IXP_1207","name":"AMS-IX East Africa","country":"KEN","latitude":-1.8389976397773617,"longitude":39.46015065499877,"customers":""},{"id":"IXP_1303","name":"Lesotho Internet Exchange","country":"LSO","latitude":-30.436847146133122,"longitude":28.040258337798175,"customers":""},{"id":"IXP_1474","name":"Tunisian Internet Exchange Point","country":"TUN","latitude":35.725167983089854,"longitude":9.88737830889639,"customers":"ASN_2609_TUN"},{"id":"IXP_1887","name":"Gabon Internet Exchange","country":"GAB","latitude":-0.5553609906953952,"longitude":9.128144922091774,"customers":"ASN_42_TUN,ASN_42_ZAF"},{"id":"IXP_1840","name":"NAPAfrica Durban","country":"ZAF","latitude":-31.068401004162578,"longitude":29.907203638033405,"customers":"ASN_10474_ZAF,ASN_11845_ZAF,ASN_42_TUN,ASN_42_ZAF,ASN_25818_ZAF,ASN_25818_KEN,ASN_2018_ZAF,ASN_2018_LSO,ASN_16637_ZAF,ASN_16637_NAM,ASN_16637_LBR,ASN_16637_BWA,ASN_16637_ZMB,ASN_16637_MUS,ASN_3741_ZAF,ASN_3741_SYC,ASN_5713_ZAF,ASN_5713_KEN"},{"id":"IXP_1848","name":"ANGONIX","country":"AGO","latitude":-7.724343449616172,"longitude":14.080172887093461,"customers":"ASN_42_TUN,ASN_42_ZAF,ASN_25818_ZAF,ASN_25818_KEN,ASN_11845_ZAF,ASN_19711_SWZ,ASN_11259_AGO"},{"id":"IXP_1929","name":"DjIX","country":"DJI","latitude":11.288245550800033,"longitude":42.714856210033425,"customers":""},{"id":"IXP_2075","name":"Asteroid Mombasa","country":"KEN","latitude":0.3032806650717079,"longitude":39.35915102799893,"customers":""},{"id":"IXP_1839","name":"Burkina Faso IXP","country":"BFA","latitude":11.916014524439815,"longitude":-2.9628292912888674,"customers":""},{"id":"IXP_2055","name":"Douala IXP","country":"CMR","latitude":4.822498179785814,"longitude":9.874234320019015,"customers":""},{"id":"IXP_1884","name":"Internet Exchange Point of Nigeria - Abuja","country":"NGA","latitude":9.518109710432363,"longitude":8.366050715847281,"customers":""},{"id":"IXP_1811","name":"Serrekunda Internet Exchange Point","country":"GMB","latitude":13.329615046250266,"longitude":-16.127765127776726,"customers":"ASN_42_TUN,ASN_42_ZAF"},{"id":"IXP_1801","name":"Côte d'Ivoire Internet Exchange Point","country":"CIV","latitude":5.719451593210332,"longitude":-5.469985034882914,"customers":""},{"id":"IXP_1838","name":"Benin IX","country":"BEN","latitude":6.299065904965119,"longitude":2.251793124814899,"customers":""},{"id":"IXP_1928","name":"Senegal IX","country":"SEN","latitude":14.792151724903176,"longitude":-17.35557106205375,"customers":"ASN_42_TUN,ASN_42_ZAF"},{"id":"IXP_2070","name":"IXP-GUINEE","country":"GIN","latitude":11.269743766782193,"longitude":-14.13909028066415,"customers":""},{"id":"IXP_1973","name":"Togo Internet Exchange Point","country":"TGO","latitude":6.439829888191834,"longitude":1.0498338316375522,"customers":""},{"id":"IXP_2019","name":"Mali IXP","country":"MLI","latitude":12.315615131605114,"longitude":-7.287558180989031,"customers":""},{"id":"IXP_1924","name":"Mombasa Internet Exchange Point","country":"KEN","latitude":-3.0887608855484046,"longitude":39.49766211026632,"customers":"ASN_9129_KEN"},{"id":"IXP_1993","name":"Harare Internet Exchange","country":"ZWE","latitude":-16.867384921120802,"longitude":29.60797198895369,"customers":"ASN_42_TUN,ASN_42_ZAF"},{"id":"IXP_1784","name":"Windhoek IXP","country":"NAM","latitude":-28.226961563372278,"longitude":18.151506187963566,"customers":""},{"id":"IXP_1885","name":"Internet Exchange Point of Nigeria - Port Harcourt","country":"NGA","latitude":4.733018991933809,"longitude":6.528253220160929,"customers":""},{"id":"IXP_1911","name":"Dodoma Internet Exchange Point","country":"TZA","latitude":-5.969687811874576,"longitude":34.44279085064222,"customers":""},{"id":"IXP_1881","name":"Madagascar Global Internet Exchange","country":"MDG","latitude":-19.13413463983853,"longitude":48.1321772066626,"customers":""},{"id":"IXP_2036","name":"Zanzibar Internet Exchange Point","country":"TZA","latitude":-7.564232839217796,"longitude":38.61644911287584,"customers":""},{"id":"IXP_1952","name":"Cameroon Internet Exchange Point","country":"CMR","latitude":3.1902997755355305,"longitude":12.900939528610468,"customers":""},{"id":"IXP_1992","name":"Burundi Internet Exchange Point","country":"BDI","latitude":-3.6851376329135657,"longitude":29.47670391861589,"customers":""},{"id":"IXP_1897","name":"Liberia Internet Exchange Point","country":"LBR","latitude":6.736515194773245,"longitude":-10.645930780637352,"customers":""},{"id":"IXP_1912","name":"Mwanza Internet Exchange Point","country":"TZA","latitude":-2.761269082369968,"longitude":33.083267877027545,"customers":""},{"id":"IXP_1541","name":"Congo Brazzaville IX","country":"COG","latitude":-4.181957757963966,"longitude":14.495472225517364,"customers":""},{"id":"IXP_2072","name":"Somali Internet Exchange Point ","country":"SOM","latitude":4.324697387646021,"longitude":44.07193943830583,"customers":""},{"id":"IXP_1909","name":"Lubumbashi Internet Exchange","country":"COD","latitude":-10.780606877560919,"longitude":28.3201249860279,"customers":""},{"id":"IXP_1917","name":"Casablanca Internet Exchange","country":"MAR","latitude":31.12029898322801,"longitude":-7.507589125848892,"customers":""},{"id":"IXP_1805","name":"Enfidha Internet Exchange","country":"TUN","latitude":34.32456617964119,"longitude":9.844898935823146,"customers":""},{"id":"IXP_1925","name":"Lesotho Internet Exchange Point","country":"LSO","latitude":-29.587300860959925,"longitude":28.509488378614606,"customers":""},{"id":"IXP_2145","name":"Tchad Internet Exchange Point ","country":"TCD","latitude":9.842845983003908,"longitude":14.760889235175592,"customers":""},{"id":"IXP_2068","name":"West African Internet Exchange","country":"NGA","latitude":7.272716652423408,"longitude":4.543679262772733,"customers":""},{"id":"IXP_1574","name":"CG-IX Pointe-Noire","country":"COG","latitude":-4.006100430757493,"longitude":11.695504907739862,"customers":""},{"id":"IXP_1708","name":"Algeria Internet Exchange","country":"DZA","latitude":36.0113557901196,"longitude":2.741219098117527,"customers":""},{"id":"IXP_1804","name":"Mbabane Internet Exchange","country":"SWZ","latitude":-26.391942064848628,"longitude":31.75795314964935,"customers":""},{"id":"IXP_1843","name":"Seychelles Internet Exchange Point","country":"SYC","latitude":-4.61764,"longitude":55.44766,"customers":""},{"id":"IXP_1886","name":"Internet Exchange Point of Nigeria - Kano","country":"NGA","latitude":10.80930683698112,"longitude":8.498353132306844,"customers":""},{"id":"IXP_1888","name":"Mauritania IX","country":"MRT","latitude":19.557798022011895,"longitude":-15.415715125525379,"customers":""},{"id":"IXP_1904","name":"RIMIX","country":"MRT","latitude":18.565427899531375,"longitude":-16.119226294545147,"customers":""},{"id":"IXP_1910","name":"Goma Internet Exchange","country":"COD","latitude":0.47497939529216815,"longitude":29.600889757002737,"customers":""},{"id":"IXP_1921","name":"Niger Internet Exchange","country":"NER","latitude":12.462121488314358,"longitude":2.6590995272088302,"customers":""},{"id":"IXP_1955","name":"Maroc Internet Exchange Point","country":"MAR","latitude":33.19702624300626,"longitude":-6.172170416617573,"customers":""}]