[{"id":"IXP_1306","name":"NAPAfrica Johannesburg","country":"ZAF","latitude":-26.290832385684624,"longitude":28.70563284250523,"customers":"ASN_11744_ZAF,ASN_24691_TGO,ASN_7020_ZAF,ASN_6968_ZAF,ASN_4134_ZAF,ASN_6083_ZAF,ASN_14115_ZAF,ASN_3257_ZAF,ASN_21859_ZAF,ASN_21859_NGA,ASN_3300_ZAF,ASN_10310_ZAF,ASN_22822_ZAF,ASN_16509_ZAF,ASN_5713_ZAF,ASN_5713_KEN,ASN_10474_ZAF,ASN_15695_MAR,ASN_3741_ZAF,ASN_3741_SYC,ASN_714_ZAF,ASN_42_TUN,ASN_42_ZAF,ASN_19551_ZAF,ASN_25818_ZAF,ASN_25818_KEN,ASN_16637_ZAF,ASN_16637_NAM,ASN_16637_LBR,ASN_16637_BWA,ASN_16637_ZMB,ASN_16637_MUS,ASN_20940_ZAF,ASN_3356_NGA,ASN_3356_ZAF,ASN_11845_ZAF,ASN_2018_ZAF,ASN_2018_LSO,ASN_10798_ZAF,ASN_19711_SWZ,ASN_14988_BWA,ASN_14988_ZAF,ASN_14988_CIV,ASN_15022_ZAF,ASN_3491_ZAF,ASN_3491_TZA,ASN_3491_KEN,ASN_3491_MOZ,ASN_3491_ZMB,ASN_3491_TUN,ASN_11179_ZAF"},{"id":"IXP_616","name":"Internet Exchange Point of Nigeria - Lagos","country":"NGA","latitude":6.683594912288221,"longitude":4.673411268214414,"customers":"ASN_42_TUN,ASN_42_ZAF,ASN_21859_ZAF,ASN_21859_NGA,ASN_3491_ZAF,ASN_3491_TZA,ASN_3491_KEN,ASN_3491_MOZ,ASN_3491_ZMB,ASN_3491_TUN"},{"id":"IXP_1308","name":"NAPAfrica Cape Town","country":"ZAF","latitude":-33.58620788312035,"longitude":19.70619851210873,"customers":"ASN_3491_ZAF,ASN_3491_TZA,ASN_3491_KEN,ASN_3491_MOZ,ASN_3491_ZMB,ASN_3491_TUN,ASN_42_TUN,ASN_42_ZAF,ASN_11845_ZAF,ASN_16637_ZAF,ASN_16637_NAM,ASN_16637_LBR,ASN_16637_BWA,ASN_16637_ZMB,ASN_16637_MUS,ASN_2018_ZAF,ASN_2018_LSO,ASN_15022_ZAF,ASN_16509_ZAF,ASN_20940_ZAF,ASN_10474_ZAF,ASN_25818_ZAF,ASN_25818_KEN,ASN_7020_ZAF,ASN_3356_NGA,ASN_3356_ZAF,ASN_3741_ZAF,ASN_3741_SYC,ASN_14115_ZAF,ASN_5713_ZAF,ASN_5713_KEN"},{"id":"IXP_209","name":"Johannesburg Internet Exchange","country":"ZAF","latitude":-27.218946247209402,"longitude":27.055738220375616,"customers":"ASN_3741_ZAF,ASN_3741_SYC,ASN_42_TUN,ASN_42_ZAF,ASN_16637_ZAF,ASN_16637_NAM,ASN_16637_LBR,ASN_16637_BWA,ASN_16637_ZMB,ASN_16637_MUS,ASN_11845_ZAF,ASN_6083_ZAF,ASN_10474_ZAF,ASN_6968_ZAF,ASN_2018_ZAF,ASN_2018_LSO,ASN_15022_ZAF,ASN_4134_ZAF,ASN_7020_ZAF,ASN_715_ZAF,ASN_715_MUS,ASN_715_EGY,ASN_19711_SWZ"},{"id":"IXP_1362","name":"Durban Internet eXchange","country":"ZAF","latitude":-30.92444065682822,"longitude":30.077095025051154,"customers":"ASN_3741_ZAF,ASN_3741_SYC,ASN_5713_ZAF,ASN_5713_KEN,ASN_20011_ZAF,ASN_42_TUN,ASN_42_ZAF,ASN_11845_ZAF,ASN_10474_ZAF,ASN_2018_ZAF,ASN_2018_LSO"},{"id":"IXP_143","name":"Kenya Internet Exchange Point","country":"KEN","latitude":-2.010545942963663,"longitude":36.25154457751429,"customers":"ASN_15399_KEN,ASN_15399_TZA,ASN_15399_UGA,ASN_15399_NGA,ASN_15808_KEN,ASN_12455_KEN,ASN_25818_ZAF,ASN_25818_KEN,ASN_42_TUN,ASN_42_ZAF,ASN_3491_ZAF,ASN_3491_TZA,ASN_3491_KEN,ASN_3491_MOZ,ASN_3491_ZMB,ASN_3491_TUN,ASN_16509_ZAF,ASN_16637_ZAF,ASN_16637_NAM,ASN_16637_LBR,ASN_16637_BWA,ASN_16637_ZMB,ASN_16637_MUS,ASN_9129_KEN"},{"id":"IXP_206","name":"Cape Town Internet Exchange","country":"ZAF","latitude":-32.8459421976309,"longitude":18.868887886336168,"customers":"ASN_3741_ZAF,ASN_3741_SYC,ASN_11845_ZAF,ASN_10474_ZAF,ASN_16637_ZAF,ASN_16637_NAM,ASN_16637_LBR,ASN_16637_BWA,ASN_16637_ZMB,ASN_16637_MUS,ASN_2018_ZAF,ASN_2018_LSO,ASN_15022_ZAF,ASN_20940_ZAF,ASN_42_TUN,ASN_42_ZAF,ASN_16509_ZAF"},{"id":"IXP_479","name":"Kinshasa Internet Exchange","country":"COD","latitude":-5.791831215691144,"longitude":14.486021336071742,"customers":""},{"id":"IXP_248","name":"Uganda Internet Exchange","country":"UGA","latitude":-0.5921143047272865,"longitude":31.538519699528475,"customers":"ASN_20294_UGA,ASN_21491_UGA,ASN_42_TUN,ASN_42_ZAF,ASN_20940_ZAF,ASN_12491_UGA,ASN_12491_COD,ASN_12491_GAB"},{"id":"IXP_242","name":"TIX Tanzania - Dar es Salaam","country":"TZA","latitude":-10.716055984366946,"longitude":39.5984848310403,"customers":"ASN_20940_ZAF,ASN_42_TUN,ASN_42_ZAF,ASN_3741_ZAF,ASN_3741_SYC,ASN_16637_ZAF,ASN_16637_NAM,ASN_16637_LBR,ASN_16637_BWA,ASN_16637_ZMB,ASN_16637_MUS,ASN_11845_ZAF,ASN_6083_ZAF,ASN_10474_ZAF,ASN_6968_ZAF,ASN_2018_ZAF,ASN_2018_LSO,ASN_15022_ZAF,ASN_3491_ZAF,ASN_3491_TZA,ASN_3491_KEN,ASN_3491_MOZ,ASN_3491_ZMB,ASN_3491_TUN,ASN_3300_ZAF,ASN_25818_ZAF,ASN_25818_KEN,ASN_10310_ZAF,ASN_19551_ZAF,ASN_16509_ZAF,ASN_714_ZAF,ASN_15706_SDN,ASN_15706_TCD,ASN_11259_AGO,ASN_15399_KEN,ASN_15399_TZA,ASN_15399_UGA,ASN_15399_NGA,ASN_15808_KEN,ASN_12455_KEN,ASN_21859_ZAF,ASN_21859_NGA,ASN_22822_ZAF"},{"id":"IXP_93","name":"Ghana Internet Exchange","country":"GHA","latitude":5.502174774242969,"longitude":-0.40275431846884013,"customers":"ASN_42_TUN,ASN_42_ZAF,ASN_20940_ZAF"},{"id":"IXP_765","name":"Rwanda Internet exchange","country":"RWA","latitude":-2.0173235281623865,"longitude":30.704570421322845,"customers":"ASN_21174_RWA,ASN_42_TUN,ASN_42_ZAF"},{"id":"IXP_932","name":"Angola Internet Exchange","country":"AGO","latitude":-7.230944284634595,"longitude":12.858377965668648,"customers":"ASN_11259_AGO,ASN_42_TUN,ASN_42_ZAF"},{"id":"IXP_59","name":"Cairo Internet Exchange","country":"EGY","latitude":30.405618379035758,"longitude":32.26515368546717,"customers":""},{"id":"IXP_367","name":"Botswana Internet Exchange","country":"BWA","latitude":-22.46858039206585,"longitude":25.802677399765408,"customers":""},{"id":"IXP_156","name":"Mauritius Internet Exchange","country":"MUS","latitude":-20.24435,"longitude":57.49175,"customers":"ASN_42_TUN,ASN_42_ZAF"},{"id":"IXP_547","name":"Zambia Internet Exchange Point","country":"ZMB","latitude":-15.473708060038588,"longitude":28.998828538515745,"customers":""},{"id":"IXP_606","name":"TIX Tanzania - Arusha","country":"TZA","latitude":-5.762674744658792,"longitude":37.992393697045934,"customers":"ASN_42_TUN,ASN_42_ZAF"},{"id":"IXP_1312","name":"Sudan Internet Exchange Point","country":"SDN","latitude":17.108881336024645,"longitude":31.18053116687758,"customers":"ASN_15706_SDN,ASN_15706_TCD,ASN_42_TUN,ASN_42_ZAF"},{"id":"IXP_158","name":"Mozambique Internet Exchange","country":"MOZ","latitude":-25.34669299896275,"longitude":32.05683065377914,"customers":"ASN_3491_ZAF,ASN_3491_TZA,ASN_3491_KEN,ASN_3491_MOZ,ASN_3491_ZMB,ASN_3491_TUN"},{"id":"IXP_1029","name":"Malawi IXP","country":"MWI","latitude":-16.50230036896004,"longitude":34.75960404165336,"customers":""},{"id":"IXP_593","name":"Middle East Internet eXchange","country":"EGY","latitude":29.535769575752767,"longitude":30.14723712672864,"customers":""},{"id":"IXP_60","name":"Cairo Regional Internet Exchange","country":"EGY","latitude":28.486952852720375,"longitude":30.84014049067534,"customers":""},{"id":"IXP_173","name":"Ibadan Internet Exchange","country":"NGA","latitude":8.672687030739711,"longitude":4.740127195216606,"customers":""},{"id":"IXP_207","name":"Hub","country":"ZAF","latitude":-32.7686448148731,"longitude":19.13791040998759,"customers":""},{"id":"IXP_208","name":"Grahamstown Internet Exchange","country":"ZAF","latitude":-27.477038869808457,"longitude":26.98868515804008,"customers":""},{"id":"IXP_210","name":"South African Internet Exchange","country":"ZAF","latitude":-27.117423897432143,"longitude":26.99813563072104,"customers":""},{"id":"IXP_220","name":"Swaziland Internet Exchange","country":"SWZ","latitude":-26.544363612240726,"longitude":30.717007705350763,"customers":""},{"id":"IXP_364","name":"Zimbabwe Internet Exchange","country":"ZWE","latitude":-18.78799492039923,"longitude":32.492185849971825,"customers":""},{"id":"IXP_545","name":"Ponto de Intercambio Internet Angola","country":"AGO","latitude":-8.18169163169748,"longitude":13.133963761352714,"customers":"ASN_11259_AGO,ASN_42_TUN,ASN_42_ZAF"},{"id":"IXP_546","name":"BurundiX Internet Exchange Point","country":"BDI","latitude":-3.662202532222497,"longitude":29.84307797406831,"customers":""},{"id":"IXP_699","name":"Côte d'Ivoire Internet Exchange Point","country":"CIV","latitude":5.247424966786286,"longitude":-5.544423722425154,"customers":""},{"id":"IXP_1207","name":"AMS-IX East Africa","country":"KEN","latitude":-3.320624268359897,"longitude":39.00134376686033,"customers":""},{"id":"IXP_1303","name":"Lesotho Internet Exchange","country":"LSO","latitude":-29.532146003516026,"longitude":27.392629825212648,"customers":""},{"id":"IXP_1474","name":"Tunisian Internet Exchange Point","country":"TUN","latitude":37.20995359835393,"longitude":9.390200407709402,"customers":"ASN_2609_TUN"},{"id":"IXP_1887","name":"Gabon Internet Exchange","country":"GAB","latitude":-0.8529365590899806,"longitude":9.044216832070344,"customers":"ASN_42_TUN,ASN_42_ZAF"},{"id":"IXP_1840","name":"NAPAfrica Durban","country":"ZAF","latitude":-29.53291725069073,"longitude":30.13851915605234,"customers":"ASN_10474_ZAF,ASN_11845_ZAF,ASN_42_TUN,ASN_42_ZAF,ASN_25818_ZAF,ASN_25818_KEN,ASN_2018_ZAF,ASN_2018_LSO,ASN_16637_ZAF,ASN_16637_NAM,ASN_16637_LBR,ASN_16637_BWA,ASN_16637_ZMB,ASN_16637_MUS,ASN_3741_ZAF,ASN_3741_SYC,ASN_5713_ZAF,ASN_5713_KEN"},{"id":"IXP_1848","name":"ANGONIX","country":"AGO","latitude":-9.106057386497659,"longitude":13.041504443763136,"customers":"ASN_42_TUN,ASN_42_ZAF,ASN_25818_ZAF,ASN_25818_KEN,ASN_11845_ZAF,ASN_19711_SWZ,ASN_11259_AGO"},{"id":"IXP_1929","name":"DjIX","country":"DJI","latitude":12.370335138591063,"longitude":42.22828249716548,"customers":""},{"id":"IXP_1839","name":"Burkina Faso IXP","country":"BFA","latitude":13.065171674082743,"longitude":-0.10660545226408358,"customers":""},{"id":"IXP_2075","name":"Asteroid Mombasa","country":"KEN","latitude":-1.0692382519682844,"longitude":40.08943918780681,"customers":""},{"id":"IXP_2055","name":"Douala IXP","country":"CMR","latitude":5.053617138736225,"longitude":10.506360043169142,"customers":""},{"id":"IXP_1884","name":"Internet Exchange Point of Nigeria - Abuja","country":"NGA","latitude":10.826900501338512,"longitude":6.179921568773154,"customers":""},{"id":"IXP_1838","name":"Benin IX","country":"BEN","latitude":6.606821428868261,"longitude":2.608032348136681,"customers":""},{"id":"IXP_1811","name":"Serrekunda Internet Exchange Point","country":"GMB","latitude":13.252243056145378,"longitude":-16.68009107161035,"customers":"ASN_42_TUN,ASN_42_ZAF"},{"id":"IXP_1801","name":"Côte d'Ivoire Internet Exchange Point","country":"CIV","latitude":6.309875945009347,"longitude":-3.786051601630127,"customers":""},{"id":"IXP_1924","name":"Mombasa Internet Exchange Point","country":"KEN","latitude":-0.16881033811293067,"longitude":38.963603082106275,"customers":"ASN_9129_KEN"},{"id":"IXP_1928","name":"Senegal IX","country":"SEN","latitude":16.181484932262343,"longitude":-16.178735381838965,"customers":"ASN_42_TUN,ASN_42_ZAF"},{"id":"IXP_1993","name":"Harare Internet Exchange","country":"ZWE","latitude":-16.704940715593313,"longitude":32.078752494229704,"customers":"ASN_42_TUN,ASN_42_ZAF"},{"id":"IXP_2070","name":"IXP-GUINEE","country":"GIN","latitude":12.076882406071965,"longitude":-13.574667666444222,"customers":""},{"id":"IXP_2019","name":"Mali IXP","country":"MLI","latitude":15.18020013340632,"longitude":-8.646262472941634,"customers":""},{"id":"IXP_1973","name":"Togo Internet Exchange Point","country":"TGO","latitude":7.818272909964332,"longitude":1.55475414813971,"customers":""},{"id":"IXP_1784","name":"Windhoek IXP","country":"NAM","latitude":-23.967696530679035,"longitude":16.11783652021275,"customers":""},{"id":"IXP_1885","name":"Internet Exchange Point of Nigeria - Port Harcourt","country":"NGA","latitude":5.290255044970338,"longitude":5.465557475865545,"customers":""},{"id":"IXP_1911","name":"Dodoma Internet Exchange Point","country":"TZA","latitude":-2.2997600560610203,"longitude":35.80279150757434,"customers":""},{"id":"IXP_1881","name":"Madagascar Global Internet Exchange","country":"MDG","latitude":-18.318037202327034,"longitude":47.544678607873124,"customers":""},{"id":"IXP_2036","name":"Zanzibar Internet Exchange Point","country":"TZA","latitude":-8.2549070099773,"longitude":38.29045343964748,"customers":""},{"id":"IXP_1952","name":"Cameroon Internet Exchange Point","country":"CMR","latitude":2.86503383835884,"longitude":10.099685774334183,"customers":""},{"id":"IXP_1992","name":"Burundi Internet Exchange Point","country":"BDI","latitude":-3.40939788031778,"longitude":30.65249548963679,"customers":""},{"id":"IXP_1897","name":"Liberia Internet Exchange Point","country":"LBR","latitude":6.503566742926548,"longitude":-10.546236226665124,"customers":""},{"id":"IXP_1912","name":"Mwanza Internet Exchange Point","country":"TZA","latitude":-4.552777663139907,"longitude":33.447040065468386,"customers":""},{"id":"IXP_1541","name":"Congo Brazzaville IX","country":"COG","latitude":-2.9383157685462917,"longitude":14.296476015062506,"customers":""},{"id":"IXP_2072","name":"Somali Internet Exchange Point ","country":"SOM","latitude":5.258980670083687,"longitude":45.76354724470033,"customers":""},{"id":"IXP_2145","name":"Tchad Internet Exchange Point ","country":"TCD","latitude":14.046510395388323,"longitude":14.275077418556851,"customers":""},{"id":"IXP_1909","name":"Lubumbashi Internet Exchange","country":"COD","latitude":-11.995132271513327,"longitude":28.205749385569614,"customers":""},{"id":"IXP_1925","name":"Lesotho Internet Exchange Point","country":"LSO","latitude":-28.959725301356613,"longitude":28.55249422569662,"customers":""},{"id":"IXP_1917","name":"Casablanca Internet Exchange","country":"MAR","latitude":32.11587358628158,"longitude":-6.734717828207217,"customers":""},{"id":"IXP_1805","name":"Enfidha Internet Exchange","country":"TUN","latitude":34.859750196231886,"longitude":10.296714340913923,"customers":""},{"id":"IXP_2068","name":"West African Internet Exchange","country":"NGA","latitude":7.001140714004996,"longitude":4.298545617146685,"customers":""},{"id":"IXP_1574","name":"CG-IX Pointe-Noire","country":"COG","latitude":-4.275705491296189,"longitude":12.409616877170139,"customers":""},{"id":"IXP_1708","name":"Algeria Internet Exchange","country":"DZA","latitude":36.615873576067166,"longitude":1.7602686427251506,"customers":""},{"id":"IXP_1804","name":"Mbabane Internet Exchange","country":"SWZ","latitude":-25.745680141510583,"longitude":31.33761612531932,"customers":""},{"id":"IXP_1843","name":"Seychelles Internet Exchange Point","country":"SYC","latitude":-4.61764,"longitude":55.44766,"customers":""},{"id":"IXP_1886","name":"Internet Exchange Point of Nigeria - Kano","country":"NGA","latitude":11.391027193792377,"longitude":8.963764841234562,"customers":""},{"id":"IXP_1888","name":"Mauritania IX","country":"MRT","latitude":17.647468728143803,"longitude":-15.561037284944513,"customers":""},{"id":"IXP_1904","name":"RIMIX","country":"MRT","latitude":16.96254949675093,"longitude":-15.14627358054246,"customers":""},{"id":"IXP_1910","name":"Goma Internet Exchange","country":"COD","latitude":-2.5970467619038136,"longitude":28.809241678917033,"customers":""},{"id":"IXP_1921","name":"Niger Internet Exchange","country":"NER","latitude":13.216967686337153,"longitude":1.7361056263514012,"customers":""},{"id":"IXP_1955","name":"Maroc Internet Exchange Point","country":"MAR","latitude":33.88402596868743,"longitude":-6.552581323096999,"customers":""}]