[{"id":"IXP_1306","name":"NAPAfrica Johannesburg","country":"ZAF","latitude":-25.040991420667922,"longitude":29.199062385721618,"customers":"ASN_11744_ZAF,ASN_32934_ZAF,ASN_21739_ZAF,ASN_24691_TGO,ASN_6968_ZAF,ASN_4134_ZAF,ASN_6083_ZAF,ASN_37105_ZAF,ASN_29918_ZAF,ASN_22355_ZAF,ASN_14115_ZAF,ASN_3257_ZAF,ASN_30999_MUS,ASN_36692_ZAF,ASN_3300_ZAF,ASN_36919_ZAF,ASN_3067_ZAF,ASN_21351_REU,ASN_15133_ZAF,ASN_10310_ZAF,ASN_22822_ZAF,ASN_16509_ZAF,ASN_5713_ZAF,ASN_5713_KEN,ASN_37054_MDG,ASN_10474_ZAF,ASN_15695_MAR,ASN_41095_SYC,ASN_3741_ZAF,ASN_3741_SYC,ASN_8075_ZAF,ASN_22572_ZAF,ASN_32653_ZAF,ASN_33763_NAM,ASN_33763_AGO,ASN_33763_MOZ,ASN_36236_ZAF,ASN_44444_DZA,ASN_44444_MUS,ASN_44444_ZAF,ASN_44444_CIV,ASN_44444_AGO,ASN_44444_KEN,ASN_44444_GHA,ASN_44444_LBR,ASN_44444_EGY,ASN_44444_ETH,ASN_44444_TUN,ASN_44444_NGA,ASN_44444_MAR,ASN_714_ZAF,ASN_36916_ZAF,ASN_36916_BEN,ASN_37028_ZAF,ASN_36951_ZAF,ASN_42_TUN,ASN_42_ZAF,ASN_25818_ZAF,ASN_25818_KEN,ASN_36994_ZAF,ASN_36994_NGA,ASN_36994_AGO,ASN_37049_ZAF,ASN_37009_NAM,ASN_16637_ZAF,ASN_16637_NAM,ASN_16637_LBR,ASN_16637_BWA,ASN_16637_ZMB,ASN_16637_MUS,ASN_20940_ZAF,ASN_3356_NGA,ASN_3356_ZAF,ASN_11845_ZAF,ASN_30844_ZMB,ASN_30844_MUS,ASN_30844_TZA,ASN_30844_KEN,ASN_30844_ZWE,ASN_30844_UGA,ASN_30844_ZAF,ASN_30844_RWA,ASN_30844_COD,ASN_2018_ZAF,ASN_2018_LSO,ASN_10798_ZAF,ASN_36944_ZAF,ASN_36937_ZAF,ASN_36874_ZAF,ASN_32437_ZAF,ASN_23889_MUS,ASN_23889_ZAF,ASN_4809_ZAF,ASN_4809_KEN,ASN_4809_NGA,ASN_29606_ZAF,ASN_36968_ZAF,ASN_19711_SWZ,ASN_37035_TZA,ASN_14988_BWA,ASN_14988_ZAF,ASN_14988_CIV,ASN_15022_ZAF,ASN_3491_ZAF,ASN_3491_TZA,ASN_3491_KEN,ASN_3491_MOZ,ASN_3491_ZMB,ASN_3491_TUN,ASN_37079_ZAF,ASN_26106_ZAF,ASN_40676_ZAF,ASN_37002_REU,ASN_32708_ZAF,ASN_32398_SWZ"},{"id":"IXP_616","name":"Internet Exchange Point of Nigeria - Lagos","country":"NGA","latitude":5.938604714682532,"longitude":4.9634241545698154,"customers":"ASN_42_TUN,ASN_42_ZAF,ASN_32934_ZAF,ASN_8075_ZAF,ASN_3491_ZAF,ASN_3491_TZA,ASN_3491_KEN,ASN_3491_MOZ,ASN_3491_ZMB,ASN_3491_TUN,ASN_36932_NGA,ASN_36938_NGA,ASN_36920_NGA"},{"id":"IXP_1308","name":"NAPAfrica Cape Town","country":"ZAF","latitude":-33.89024698479161,"longitude":19.138506682938218,"customers":"ASN_3491_ZAF,ASN_3491_TZA,ASN_3491_KEN,ASN_3491_MOZ,ASN_3491_ZMB,ASN_3491_TUN,ASN_37105_ZAF,ASN_36994_ZAF,ASN_36994_NGA,ASN_36994_AGO,ASN_42_TUN,ASN_42_ZAF,ASN_11845_ZAF,ASN_8075_ZAF,ASN_37009_NAM,ASN_36874_ZAF,ASN_16637_ZAF,ASN_16637_NAM,ASN_16637_LBR,ASN_16637_BWA,ASN_16637_ZMB,ASN_16637_MUS,ASN_2018_ZAF,ASN_2018_LSO,ASN_15022_ZAF,ASN_22355_ZAF,ASN_16509_ZAF,ASN_20940_ZAF,ASN_32653_ZAF,ASN_10474_ZAF,ASN_25818_ZAF,ASN_25818_KEN,ASN_37049_ZAF,ASN_30844_ZMB,ASN_30844_MUS,ASN_30844_TZA,ASN_30844_KEN,ASN_30844_ZWE,ASN_30844_UGA,ASN_30844_ZAF,ASN_30844_RWA,ASN_30844_COD,ASN_36916_ZAF,ASN_36916_BEN,ASN_36943_ZAF,ASN_29606_ZAF,ASN_36898_ZAF,ASN_33763_NAM,ASN_33763_AGO,ASN_33763_MOZ,ASN_3356_NGA,ASN_3356_ZAF,ASN_36968_ZAF,ASN_3067_ZAF,ASN_3741_ZAF,ASN_3741_SYC,ASN_14115_ZAF,ASN_5713_ZAF,ASN_5713_KEN,ASN_26106_ZAF,ASN_32437_ZAF,ASN_36937_ZAF"},{"id":"IXP_209","name":"Johannesburg Internet Exchange","country":"ZAF","latitude":-27.899921360374908,"longitude":28.137562144892904,"customers":"ASN_3741_ZAF,ASN_3741_SYC,ASN_42_TUN,ASN_42_ZAF,ASN_16637_ZAF,ASN_16637_NAM,ASN_16637_LBR,ASN_16637_BWA,ASN_16637_ZMB,ASN_16637_MUS,ASN_11845_ZAF,ASN_6083_ZAF,ASN_36937_ZAF,ASN_10474_ZAF,ASN_6968_ZAF,ASN_2018_ZAF,ASN_2018_LSO,ASN_15022_ZAF,ASN_32653_ZAF,ASN_36874_ZAF,ASN_37105_ZAF,ASN_30844_ZMB,ASN_30844_MUS,ASN_30844_TZA,ASN_30844_KEN,ASN_30844_ZWE,ASN_30844_UGA,ASN_30844_ZAF,ASN_30844_RWA,ASN_30844_COD,ASN_33763_NAM,ASN_33763_AGO,ASN_33763_MOZ,ASN_22355_ZAF,ASN_44444_DZA,ASN_44444_MUS,ASN_44444_ZAF,ASN_44444_CIV,ASN_44444_AGO,ASN_44444_KEN,ASN_44444_GHA,ASN_44444_LBR,ASN_44444_EGY,ASN_44444_ETH,ASN_44444_TUN,ASN_44444_NGA,ASN_44444_MAR,ASN_36916_ZAF,ASN_36916_BEN,ASN_36968_ZAF,ASN_32437_ZAF,ASN_37049_ZAF,ASN_33762_ZAF,ASN_4134_ZAF,ASN_26106_ZAF,ASN_22750_ZAF,ASN_37028_ZAF,ASN_36994_ZAF,ASN_36994_NGA,ASN_36994_AGO,ASN_715_ZAF,ASN_715_MUS,ASN_715_EGY,ASN_19711_SWZ,ASN_4809_ZAF,ASN_4809_KEN,ASN_4809_NGA,ASN_8075_ZAF,ASN_40676_ZAF"},{"id":"IXP_1362","name":"Durban Internet eXchange","country":"ZAF","latitude":-29.773621020143864,"longitude":30.417039187819007,"customers":"ASN_3741_ZAF,ASN_3741_SYC,ASN_5713_ZAF,ASN_5713_KEN,ASN_42_TUN,ASN_42_ZAF,ASN_11845_ZAF,ASN_33762_ZAF,ASN_10474_ZAF,ASN_2018_ZAF,ASN_2018_LSO,ASN_32653_ZAF,ASN_36874_ZAF,ASN_36916_ZAF,ASN_36916_BEN,ASN_36994_ZAF,ASN_36994_NGA,ASN_36994_AGO,ASN_36968_ZAF,ASN_32437_ZAF,ASN_37049_ZAF"},{"id":"IXP_143","name":"Kenya Internet Exchange Point","country":"KEN","latitude":0.7716869572362477,"longitude":36.6192147815038,"customers":"ASN_15399_KEN,ASN_15399_TZA,ASN_15399_UGA,ASN_15399_NGA,ASN_36866_KEN,ASN_15808_KEN,ASN_12455_KEN,ASN_33771_KEN,ASN_36914_KEN,ASN_25568_KEN,ASN_12556_KEN,ASN_12556_UGA,ASN_36926_KEN,ASN_36915_KEN,ASN_36948_KEN,ASN_30844_ZMB,ASN_30844_MUS,ASN_30844_TZA,ASN_30844_KEN,ASN_30844_ZWE,ASN_30844_UGA,ASN_30844_ZAF,ASN_30844_RWA,ASN_30844_COD,ASN_25818_ZAF,ASN_25818_KEN,ASN_42_TUN,ASN_42_ZAF,ASN_37109_KEN,ASN_4134_ZAF,ASN_3491_ZAF,ASN_3491_TZA,ASN_3491_KEN,ASN_3491_MOZ,ASN_3491_ZMB,ASN_3491_TUN,ASN_37063_UGA,ASN_8075_ZAF,ASN_16509_ZAF,ASN_15133_ZAF,ASN_16637_ZAF,ASN_16637_NAM,ASN_16637_LBR,ASN_16637_BWA,ASN_16637_ZMB,ASN_16637_MUS,ASN_9129_KEN"},{"id":"IXP_206","name":"Cape Town Internet Exchange","country":"ZAF","latitude":-34.208347072783184,"longitude":18.83824164950447,"customers":"ASN_3741_ZAF,ASN_3741_SYC,ASN_11845_ZAF,ASN_36937_ZAF,ASN_10474_ZAF,ASN_16637_ZAF,ASN_16637_NAM,ASN_16637_LBR,ASN_16637_BWA,ASN_16637_ZMB,ASN_16637_MUS,ASN_2018_ZAF,ASN_2018_LSO,ASN_15022_ZAF,ASN_32653_ZAF,ASN_37105_ZAF,ASN_30844_ZMB,ASN_30844_MUS,ASN_30844_TZA,ASN_30844_KEN,ASN_30844_ZWE,ASN_30844_UGA,ASN_30844_ZAF,ASN_30844_RWA,ASN_30844_COD,ASN_22355_ZAF,ASN_20940_ZAF,ASN_42_TUN,ASN_42_ZAF,ASN_33762_ZAF,ASN_36874_ZAF,ASN_36943_ZAF,ASN_36916_ZAF,ASN_36916_BEN,ASN_36994_ZAF,ASN_36994_NGA,ASN_36994_AGO,ASN_36968_ZAF,ASN_32437_ZAF,ASN_16509_ZAF,ASN_8075_ZAF,ASN_37049_ZAF"},{"id":"IXP_479","name":"Kinshasa Internet Exchange","country":"COD","latitude":-5.573425558922191,"longitude":16.704868987722637,"customers":""},{"id":"IXP_248","name":"Uganda Internet Exchange","country":"UGA","latitude":1.397602733073951,"longitude":31.253291502748986,"customers":"ASN_37063_UGA,ASN_36991_UGA,ASN_30844_ZMB,ASN_30844_MUS,ASN_30844_TZA,ASN_30844_KEN,ASN_30844_ZWE,ASN_30844_UGA,ASN_30844_ZAF,ASN_30844_RWA,ASN_30844_COD,ASN_29039_UGA,ASN_20294_UGA,ASN_21491_UGA,ASN_29032_UGA,ASN_37075_UGA,ASN_42_TUN,ASN_42_ZAF,ASN_20940_ZAF,ASN_12491_UGA,ASN_12491_COD,ASN_12491_GAB,ASN_12556_KEN,ASN_12556_UGA"},{"id":"IXP_242","name":"TIX Tanzania - Dar es Salaam","country":"TZA","latitude":-7.578488551504558,"longitude":39.14371537116985,"customers":"ASN_37084_TZA,ASN_32860_TZA,ASN_37045_TZA,ASN_30844_ZMB,ASN_30844_MUS,ASN_30844_TZA,ASN_30844_KEN,ASN_30844_ZWE,ASN_30844_UGA,ASN_30844_ZAF,ASN_30844_RWA,ASN_30844_COD,ASN_20940_ZAF,ASN_36909_TZA,ASN_42_TUN,ASN_42_ZAF,ASN_3741_ZAF,ASN_3741_SYC,ASN_16637_ZAF,ASN_16637_NAM,ASN_16637_LBR,ASN_16637_BWA,ASN_16637_ZMB,ASN_16637_MUS,ASN_11845_ZAF,ASN_6083_ZAF,ASN_36937_ZAF,ASN_10474_ZAF,ASN_6968_ZAF,ASN_2018_ZAF,ASN_2018_LSO,ASN_15022_ZAF,ASN_32653_ZAF,ASN_36874_ZAF,ASN_37105_ZAF,ASN_33763_NAM,ASN_33763_AGO,ASN_33763_MOZ,ASN_22355_ZAF,ASN_44444_DZA,ASN_44444_MUS,ASN_44444_ZAF,ASN_44444_CIV,ASN_44444_AGO,ASN_44444_KEN,ASN_44444_GHA,ASN_44444_LBR,ASN_44444_EGY,ASN_44444_ETH,ASN_44444_TUN,ASN_44444_NGA,ASN_44444_MAR,ASN_36916_ZAF,ASN_36916_BEN,ASN_4809_ZAF,ASN_4809_KEN,ASN_4809_NGA,ASN_36968_ZAF,ASN_32437_ZAF,ASN_37049_ZAF,ASN_3491_ZAF,ASN_3491_TZA,ASN_3491_KEN,ASN_3491_MOZ,ASN_3491_ZMB,ASN_3491_TUN,ASN_3300_ZAF,ASN_21351_REU,ASN_41095_SYC,ASN_8075_ZAF,ASN_25818_ZAF,ASN_25818_KEN,ASN_36994_ZAF,ASN_36994_NGA,ASN_36994_AGO,ASN_37009_NAM,ASN_36944_ZAF,ASN_32934_ZAF,ASN_23889_MUS,ASN_23889_ZAF,ASN_36692_ZAF,ASN_15133_ZAF,ASN_10310_ZAF,ASN_32708_ZAF,ASN_16509_ZAF,ASN_37054_MDG,ASN_36236_ZAF,ASN_714_ZAF,ASN_36951_ZAF,ASN_30999_MUS,ASN_15706_SDN,ASN_15706_TCD,ASN_33788_SDN,ASN_11259_AGO,ASN_37011_AGO,ASN_15399_KEN,ASN_15399_TZA,ASN_15399_UGA,ASN_15399_NGA,ASN_36866_KEN,ASN_15808_KEN,ASN_12455_KEN,ASN_33771_KEN,ASN_36914_KEN,ASN_36915_KEN,ASN_36948_KEN,ASN_37109_KEN,ASN_37063_UGA,ASN_37006_RWA,ASN_37006_MUS,ASN_22822_ZAF,ASN_36932_NGA,ASN_37013_TZA,ASN_33765_TZA,ASN_36965_TZA,ASN_36930_TZA,ASN_37035_TZA"},{"id":"IXP_93","name":"Ghana Internet Exchange","country":"GHA","latitude":6.50326419037118,"longitude":-0.8042410534168261,"customers":"ASN_30986_GHA,ASN_37012_GHA,ASN_33786_GHA,ASN_37103_GHA,ASN_29614_GHA,ASN_29614_BFA,ASN_37030_GHA,ASN_4809_ZAF,ASN_4809_KEN,ASN_4809_NGA,ASN_42_TUN,ASN_42_ZAF,ASN_20940_ZAF"},{"id":"IXP_765","name":"Rwanda Internet exchange","country":"RWA","latitude":-2.319165229858273,"longitude":29.693335848221377,"customers":"ASN_21174_RWA,ASN_37006_RWA,ASN_37006_MUS,ASN_36890_RWA,ASN_30844_ZMB,ASN_30844_MUS,ASN_30844_TZA,ASN_30844_KEN,ASN_30844_ZWE,ASN_30844_UGA,ASN_30844_ZAF,ASN_30844_RWA,ASN_30844_COD"},{"id":"IXP_932","name":"Angola Internet Exchange","country":"AGO","latitude":-8.79249576974987,"longitude":13.677804844507586,"customers":"ASN_11259_AGO,ASN_17400_AGO,ASN_36881_AGO,ASN_33763_NAM,ASN_33763_AGO,ASN_33763_MOZ,ASN_42_TUN,ASN_42_ZAF"},{"id":"IXP_59","name":"Cairo Internet Exchange","country":"EGY","latitude":28.832021037846083,"longitude":32.137369473155886,"customers":""},{"id":"IXP_367","name":"Botswana Internet Exchange","country":"BWA","latitude":-24.47843918492811,"longitude":25.630724093552452,"customers":""},{"id":"IXP_156","name":"Mauritius Internet Exchange","country":"MUS","latitude":-20.24435,"longitude":57.49175,"customers":"ASN_42_TUN,ASN_42_ZAF,ASN_30999_MUS,ASN_23889_MUS,ASN_23889_ZAF"},{"id":"IXP_547","name":"Zambia Internet Exchange Point","country":"ZMB","latitude":-16.692548164216767,"longitude":27.146982149272638,"customers":""},{"id":"IXP_606","name":"TIX Tanzania - Arusha","country":"TZA","latitude":-1.8465600540853637,"longitude":35.39677835722713,"customers":"ASN_30844_ZMB,ASN_30844_MUS,ASN_30844_TZA,ASN_30844_KEN,ASN_30844_ZWE,ASN_30844_UGA,ASN_30844_ZAF,ASN_30844_RWA,ASN_30844_COD,ASN_37084_TZA,ASN_42_TUN,ASN_42_ZAF,ASN_33765_TZA,ASN_36930_TZA,ASN_36909_TZA"},{"id":"IXP_1312","name":"Sudan Internet Exchange Point","country":"SDN","latitude":14.879325892485488,"longitude":31.199119201845875,"customers":"ASN_15706_SDN,ASN_15706_TCD,ASN_33788_SDN,ASN_36998_SDN,ASN_36972_SDN,ASN_42_TUN,ASN_42_ZAF"},{"id":"IXP_158","name":"Mozambique Internet Exchange","country":"MOZ","latitude":-23.383242985071995,"longitude":33.28340102966261,"customers":"ASN_42235_MOZ,ASN_30619_MOZ,ASN_32017_MOZ,ASN_36865_MOZ,ASN_3491_ZAF,ASN_3491_TZA,ASN_3491_KEN,ASN_3491_MOZ,ASN_3491_ZMB,ASN_3491_TUN"},{"id":"IXP_1029","name":"Malawi IXP","country":"MWI","latitude":-15.942421876371123,"longitude":34.578724386920484,"customers":"ASN_36969_MWI"},{"id":"IXP_593","name":"Middle East Internet eXchange","country":"EGY","latitude":29.281457197328006,"longitude":29.99908634114721,"customers":""},{"id":"IXP_60","name":"Cairo Regional Internet Exchange","country":"EGY","latitude":30.54334548518238,"longitude":32.94933389373976,"customers":""},{"id":"IXP_173","name":"Ibadan Internet Exchange","country":"NGA","latitude":6.348383103221802,"longitude":4.268080894194806,"customers":""},{"id":"IXP_207","name":"Hub","country":"ZAF","latitude":-34.79000874117277,"longitude":19.772770779144174,"customers":""},{"id":"IXP_208","name":"Grahamstown Internet Exchange","country":"ZAF","latitude":-33.38018364966151,"longitude":26.06550871339002,"customers":""},{"id":"IXP_210","name":"South African Internet Exchange","country":"ZAF","latitude":-26.91181230685514,"longitude":26.72847107865226,"customers":""},{"id":"IXP_220","name":"Swaziland Internet Exchange","country":"SWZ","latitude":-25.84296019905111,"longitude":31.375201936997186,"customers":""},{"id":"IXP_364","name":"Zimbabwe Internet Exchange","country":"ZWE","latitude":-19.134913703030303,"longitude":30.194761007112433,"customers":""},{"id":"IXP_545","name":"Ponto de Intercambio Internet Angola","country":"AGO","latitude":-7.8524694067973755,"longitude":13.09562565421789,"customers":"ASN_11259_AGO,ASN_17400_AGO,ASN_36881_AGO,ASN_33763_NAM,ASN_33763_AGO,ASN_33763_MOZ,ASN_42_TUN,ASN_42_ZAF"},{"id":"IXP_546","name":"BurundiX Internet Exchange Point","country":"BDI","latitude":-4.15625442440394,"longitude":29.57677679100623,"customers":""},{"id":"IXP_699","name":"Côte d'Ivoire Internet Exchange Point","country":"CIV","latitude":5.59557129969732,"longitude":-3.0419857858153216,"customers":""},{"id":"IXP_1207","name":"AMS-IX East Africa","country":"KEN","latitude":-1.996373513001231,"longitude":40.940800856738775,"customers":""},{"id":"IXP_1303","name":"Lesotho Internet Exchange","country":"LSO","latitude":-29.106523516230006,"longitude":28.397063217638966,"customers":""},{"id":"IXP_1474","name":"Tunisian Internet Exchange Point","country":"TUN","latitude":36.66462802694155,"longitude":10.626183106038894,"customers":"ASN_2609_TUN"},{"id":"IXP_1887","name":"Gabon Internet Exchange","country":"GAB","latitude":-0.5579067290760344,"longitude":9.397697551699054,"customers":"ASN_16058_GAB,ASN_42_TUN,ASN_42_ZAF"},{"id":"IXP_1840","name":"NAPAfrica Durban","country":"ZAF","latitude":-28.81185640744117,"longitude":30.59246829423831,"customers":"ASN_36951_ZAF,ASN_36874_ZAF,ASN_10474_ZAF,ASN_11845_ZAF,ASN_42_TUN,ASN_42_ZAF,ASN_32437_ZAF,ASN_36916_ZAF,ASN_36916_BEN,ASN_25818_ZAF,ASN_25818_KEN,ASN_2018_ZAF,ASN_2018_LSO,ASN_36994_ZAF,ASN_36994_NGA,ASN_36994_AGO,ASN_16637_ZAF,ASN_16637_NAM,ASN_16637_LBR,ASN_16637_BWA,ASN_16637_ZMB,ASN_16637_MUS,ASN_22355_ZAF,ASN_33762_ZAF,ASN_3741_ZAF,ASN_3741_SYC,ASN_5713_ZAF,ASN_5713_KEN,ASN_37049_ZAF,ASN_36968_ZAF,ASN_18931_ZAF"},{"id":"IXP_1848","name":"ANGONIX","country":"AGO","latitude":-7.5072440059085634,"longitude":13.209085973880736,"customers":"ASN_37011_AGO,ASN_42_TUN,ASN_42_ZAF,ASN_25818_ZAF,ASN_25818_KEN,ASN_17400_AGO,ASN_11845_ZAF,ASN_36936_AGO,ASN_19711_SWZ,ASN_33763_NAM,ASN_33763_AGO,ASN_33763_MOZ,ASN_11259_AGO"},{"id":"IXP_1929","name":"DjIX","country":"DJI","latitude":11.401359794827638,"longitude":42.53526684513798,"customers":""},{"id":"IXP_2075","name":"Asteroid Mombasa","country":"KEN","latitude":-2.0955923854355047,"longitude":39.83661718172754,"customers":""},{"id":"IXP_1839","name":"Burkina Faso IXP","country":"BFA","latitude":14.529126391043082,"longitude":-1.4450641174052588,"customers":""},{"id":"IXP_2055","name":"Douala IXP","country":"CMR","latitude":3.896039960453216,"longitude":10.072615639971774,"customers":""},{"id":"IXP_1884","name":"Internet Exchange Point of Nigeria - Abuja","country":"NGA","latitude":8.853610345904611,"longitude":6.763139658180384,"customers":""},{"id":"IXP_1811","name":"Serrekunda Internet Exchange Point","country":"GMB","latitude":13.398462973747488,"longitude":-16.76408305111677,"customers":"ASN_25250_GMB,ASN_42_TUN,ASN_42_ZAF"},{"id":"IXP_1801","name":"Côte d'Ivoire Internet Exchange Point","country":"CIV","latitude":6.91623036904791,"longitude":-4.099502969017387,"customers":"ASN_36974_CIV,ASN_36974_NGA,ASN_36974_ZMB,ASN_36974_BWA,ASN_36974_RWA,ASN_29571_CIV"},{"id":"IXP_1838","name":"Benin IX","country":"BEN","latitude":7.710921322700664,"longitude":1.9547862116497896,"customers":""},{"id":"IXP_1928","name":"Senegal IX","country":"SEN","latitude":15.22040271753779,"longitude":-16.800873556539763,"customers":"ASN_42_TUN,ASN_42_ZAF"},{"id":"IXP_2070","name":"IXP-GUINEE","country":"GIN","latitude":11.890669089529574,"longitude":-12.209117021973821,"customers":""},{"id":"IXP_1973","name":"Togo Internet Exchange Point","country":"TGO","latitude":6.70511947075575,"longitude":1.5393074660063246,"customers":""},{"id":"IXP_2019","name":"Mali IXP","country":"MLI","latitude":12.327157617939761,"longitude":-9.53910361640476,"customers":""},{"id":"IXP_1924","name":"Mombasa Internet Exchange Point","country":"KEN","latitude":-4.151905592533479,"longitude":39.15962693057589,"customers":"ASN_9129_KEN"},{"id":"IXP_1993","name":"Harare Internet Exchange","country":"ZWE","latitude":-17.985950585169075,"longitude":29.297078354139586,"customers":"ASN_30844_ZMB,ASN_30844_MUS,ASN_30844_TZA,ASN_30844_KEN,ASN_30844_ZWE,ASN_30844_UGA,ASN_30844_ZAF,ASN_30844_RWA,ASN_30844_COD,ASN_36986_ZWE,ASN_42_TUN,ASN_42_ZAF"},{"id":"IXP_1784","name":"Windhoek IXP","country":"NAM","latitude":-18.522755168784524,"longitude":15.49676921057359,"customers":"ASN_33763_NAM,ASN_33763_AGO,ASN_33763_MOZ,ASN_37009_NAM"},{"id":"IXP_1885","name":"Internet Exchange Point of Nigeria - Port Harcourt","country":"NGA","latitude":5.462639585888889,"longitude":8.212421464583006,"customers":""},{"id":"IXP_1911","name":"Dodoma Internet Exchange Point","country":"TZA","latitude":-9.77932284171587,"longitude":36.30846791576331,"customers":""},{"id":"IXP_1881","name":"Madagascar Global Internet Exchange","country":"MDG","latitude":-19.95456717368,"longitude":47.02480465433909,"customers":""},{"id":"IXP_2036","name":"Zanzibar Internet Exchange Point","country":"TZA","latitude":-8.576041857635582,"longitude":38.17455877077564,"customers":""},{"id":"IXP_1952","name":"Cameroon Internet Exchange Point","country":"CMR","latitude":5.4589018832890925,"longitude":10.688126007352867,"customers":""},{"id":"IXP_1992","name":"Burundi Internet Exchange Point","country":"BDI","latitude":-3.3887915405651325,"longitude":29.621400234203122,"customers":"ASN_25429_BDI"},{"id":"IXP_1897","name":"Liberia Internet Exchange Point","country":"LBR","latitude":7.67537073175684,"longitude":-10.7334591451507,"customers":"ASN_37094_LBR"},{"id":"IXP_1912","name":"Mwanza Internet Exchange Point","country":"TZA","latitude":-8.421655346639266,"longitude":31.522419994442924,"customers":""},{"id":"IXP_1541","name":"Congo Brazzaville IX","country":"COG","latitude":-2.8373843558880076,"longitude":14.537463880339143,"customers":""},{"id":"IXP_2072","name":"Somali Internet Exchange Point ","country":"SOM","latitude":2.4147582918077144,"longitude":46.01924482623473,"customers":""},{"id":"IXP_1909","name":"Lubumbashi Internet Exchange","country":"COD","latitude":-10.166922305584222,"longitude":28.437893359216464,"customers":""},{"id":"IXP_1917","name":"Casablanca Internet Exchange","country":"MAR","latitude":32.58612537556624,"longitude":-7.40690617438767,"customers":""},{"id":"IXP_1805","name":"Enfidha Internet Exchange","country":"TUN","latitude":36.5134071078152,"longitude":9.747145905731605,"customers":""},{"id":"IXP_1925","name":"Lesotho Internet Exchange Point","country":"LSO","latitude":-28.92955306011405,"longitude":28.326555225183405,"customers":""},{"id":"IXP_2145","name":"Tchad Internet Exchange Point ","country":"TCD","latitude":12.58833392773492,"longitude":16.21928866174051,"customers":""},{"id":"IXP_2068","name":"West African Internet Exchange","country":"NGA","latitude":6.759731842777895,"longitude":4.3901603405658856,"customers":""},{"id":"IXP_1574","name":"CG-IX Pointe-Noire","country":"COG","latitude":-3.5302164250406314,"longitude":12.292170724123071,"customers":""},{"id":"IXP_1708","name":"Algeria Internet Exchange","country":"DZA","latitude":35.8797066514265,"longitude":3.0141824927301024,"customers":""},{"id":"IXP_1804","name":"Mbabane Internet Exchange","country":"SWZ","latitude":-27.17401683726467,"longitude":31.340754671000667,"customers":""},{"id":"IXP_1843","name":"Seychelles Internet Exchange Point","country":"SYC","latitude":-4.61764,"longitude":55.44766,"customers":""},{"id":"IXP_1886","name":"Internet Exchange Point of Nigeria - Kano","country":"NGA","latitude":9.78708871029037,"longitude":9.408084567376907,"customers":""},{"id":"IXP_1888","name":"Mauritania IX","country":"MRT","latitude":18.097057753903908,"longitude":-15.059494554492819,"customers":""},{"id":"IXP_1904","name":"RIMIX","country":"MRT","latitude":17.01609463895736,"longitude":-15.192150828229309,"customers":""},{"id":"IXP_1910","name":"Goma Internet Exchange","country":"COD","latitude":-3.889159535822756,"longitude":28.462437246159464,"customers":""},{"id":"IXP_1921","name":"Niger Internet Exchange","country":"NER","latitude":14.251279339635229,"longitude":3.7118723007806484,"customers":""},{"id":"IXP_1955","name":"Maroc Internet Exchange Point","country":"MAR","latitude":33.86192483604466,"longitude":-6.1722040772241025,"customers":""}]