[{"id":"IXP_1306","name":"NAPAfrica Johannesburg","country":"ZAF","latitude":-26.866753134801847,"longitude":27.714843323481475,"customers":"ASN_11744_ZAF,ASN_32934_ZAF,ASN_21739_ZAF,ASN_24691_TGO,ASN_6968_ZAF,ASN_4134_ZAF,ASN_6083_ZAF,ASN_37105_ZAF,ASN_29918_ZAF,ASN_22355_ZAF,ASN_14115_ZAF,ASN_3257_ZAF,ASN_30999_MUS,ASN_36692_ZAF,ASN_3300_ZAF,ASN_36919_ZAF,ASN_3067_ZAF,ASN_21351_REU,ASN_15133_ZAF,ASN_10310_ZAF,ASN_22822_ZAF,ASN_16509_ZAF,ASN_5713_ZAF,ASN_5713_KEN,ASN_37054_MDG,ASN_10474_ZAF,ASN_15695_MAR,ASN_41095_SYC,ASN_3741_ZAF,ASN_3741_SYC,ASN_8075_ZAF,ASN_22572_ZAF,ASN_32653_ZAF,ASN_33763_NAM,ASN_33763_AGO,ASN_33763_MOZ,ASN_36236_ZAF,ASN_44444_DZA,ASN_44444_MUS,ASN_44444_ZAF,ASN_44444_CIV,ASN_44444_AGO,ASN_44444_KEN,ASN_44444_GHA,ASN_44444_LBR,ASN_44444_EGY,ASN_44444_ETH,ASN_44444_TUN,ASN_44444_NGA,ASN_44444_MAR,ASN_714_ZAF,ASN_36916_ZAF,ASN_36916_BEN,ASN_37028_ZAF,ASN_36951_ZAF,ASN_42_TUN,ASN_42_ZAF,ASN_25818_ZAF,ASN_25818_KEN,ASN_36994_ZAF,ASN_36994_NGA,ASN_36994_AGO,ASN_37049_ZAF,ASN_37009_NAM,ASN_16637_ZAF,ASN_16637_NAM,ASN_16637_LBR,ASN_16637_BWA,ASN_16637_ZMB,ASN_16637_MUS,ASN_20940_ZAF,ASN_3356_NGA,ASN_3356_ZAF,ASN_11845_ZAF,ASN_30844_ZMB,ASN_30844_MUS,ASN_30844_TZA,ASN_30844_KEN,ASN_30844_ZWE,ASN_30844_UGA,ASN_30844_ZAF,ASN_30844_RWA,ASN_30844_COD,ASN_2018_ZAF,ASN_2018_LSO,ASN_10798_ZAF,ASN_36944_ZAF,ASN_36937_ZAF,ASN_36874_ZAF,ASN_32437_ZAF,ASN_23889_MUS,ASN_23889_ZAF,ASN_4809_ZAF,ASN_4809_KEN,ASN_4809_NGA,ASN_29606_ZAF,ASN_36968_ZAF,ASN_19711_SWZ,ASN_37035_TZA,ASN_14988_BWA,ASN_14988_ZAF,ASN_14988_CIV,ASN_15022_ZAF,ASN_3491_ZAF,ASN_3491_TZA,ASN_3491_KEN,ASN_3491_MOZ,ASN_3491_ZMB,ASN_3491_TUN,ASN_37079_ZAF,ASN_26106_ZAF,ASN_40676_ZAF,ASN_37002_REU,ASN_32708_ZAF,ASN_32398_SWZ"},{"id":"IXP_616","name":"Internet Exchange Point of Nigeria - Lagos","country":"NGA","latitude":8.093316919225737,"longitude":3.692336721863169,"customers":"ASN_42_TUN,ASN_42_ZAF,ASN_32934_ZAF,ASN_8075_ZAF,ASN_3491_ZAF,ASN_3491_TZA,ASN_3491_KEN,ASN_3491_MOZ,ASN_3491_ZMB,ASN_3491_TUN,ASN_36932_NGA,ASN_36938_NGA,ASN_36920_NGA"},{"id":"IXP_1308","name":"NAPAfrica Cape Town","country":"ZAF","latitude":-33.03999540904228,"longitude":19.064327635375896,"customers":"ASN_3491_ZAF,ASN_3491_TZA,ASN_3491_KEN,ASN_3491_MOZ,ASN_3491_ZMB,ASN_3491_TUN,ASN_37105_ZAF,ASN_36994_ZAF,ASN_36994_NGA,ASN_36994_AGO,ASN_42_TUN,ASN_42_ZAF,ASN_11845_ZAF,ASN_8075_ZAF,ASN_37009_NAM,ASN_36874_ZAF,ASN_16637_ZAF,ASN_16637_NAM,ASN_16637_LBR,ASN_16637_BWA,ASN_16637_ZMB,ASN_16637_MUS,ASN_2018_ZAF,ASN_2018_LSO,ASN_15022_ZAF,ASN_22355_ZAF,ASN_16509_ZAF,ASN_20940_ZAF,ASN_32653_ZAF,ASN_10474_ZAF,ASN_25818_ZAF,ASN_25818_KEN,ASN_37049_ZAF,ASN_30844_ZMB,ASN_30844_MUS,ASN_30844_TZA,ASN_30844_KEN,ASN_30844_ZWE,ASN_30844_UGA,ASN_30844_ZAF,ASN_30844_RWA,ASN_30844_COD,ASN_36916_ZAF,ASN_36916_BEN,ASN_36943_ZAF,ASN_29606_ZAF,ASN_36898_ZAF,ASN_33763_NAM,ASN_33763_AGO,ASN_33763_MOZ,ASN_3356_NGA,ASN_3356_ZAF,ASN_36968_ZAF,ASN_3067_ZAF,ASN_3741_ZAF,ASN_3741_SYC,ASN_14115_ZAF,ASN_5713_ZAF,ASN_5713_KEN,ASN_26106_ZAF,ASN_32437_ZAF,ASN_36937_ZAF"},{"id":"IXP_209","name":"Johannesburg Internet Exchange","country":"ZAF","latitude":-26.40352118036504,"longitude":28.737952266148827,"customers":"ASN_3741_ZAF,ASN_3741_SYC,ASN_42_TUN,ASN_42_ZAF,ASN_16637_ZAF,ASN_16637_NAM,ASN_16637_LBR,ASN_16637_BWA,ASN_16637_ZMB,ASN_16637_MUS,ASN_11845_ZAF,ASN_6083_ZAF,ASN_36937_ZAF,ASN_10474_ZAF,ASN_6968_ZAF,ASN_2018_ZAF,ASN_2018_LSO,ASN_15022_ZAF,ASN_32653_ZAF,ASN_36874_ZAF,ASN_37105_ZAF,ASN_30844_ZMB,ASN_30844_MUS,ASN_30844_TZA,ASN_30844_KEN,ASN_30844_ZWE,ASN_30844_UGA,ASN_30844_ZAF,ASN_30844_RWA,ASN_30844_COD,ASN_33763_NAM,ASN_33763_AGO,ASN_33763_MOZ,ASN_22355_ZAF,ASN_44444_DZA,ASN_44444_MUS,ASN_44444_ZAF,ASN_44444_CIV,ASN_44444_AGO,ASN_44444_KEN,ASN_44444_GHA,ASN_44444_LBR,ASN_44444_EGY,ASN_44444_ETH,ASN_44444_TUN,ASN_44444_NGA,ASN_44444_MAR,ASN_36916_ZAF,ASN_36916_BEN,ASN_4809_ZAF,ASN_4809_KEN,ASN_4809_NGA,ASN_36968_ZAF,ASN_32437_ZAF,ASN_37049_ZAF,ASN_33762_ZAF,ASN_4134_ZAF,ASN_26106_ZAF,ASN_22750_ZAF,ASN_36994_ZAF,ASN_36994_NGA,ASN_36994_AGO,ASN_715_ZAF,ASN_715_MUS,ASN_715_EGY,ASN_19711_SWZ,ASN_8075_ZAF,ASN_40676_ZAF"},{"id":"IXP_1362","name":"Durban Internet eXchange","country":"ZAF","latitude":-28.596862054092632,"longitude":31.324894745111063,"customers":"ASN_3741_ZAF,ASN_3741_SYC,ASN_5713_ZAF,ASN_5713_KEN,ASN_42_TUN,ASN_42_ZAF,ASN_11845_ZAF,ASN_33762_ZAF,ASN_10474_ZAF,ASN_2018_ZAF,ASN_2018_LSO,ASN_32653_ZAF,ASN_36874_ZAF,ASN_36916_ZAF,ASN_36916_BEN,ASN_36994_ZAF,ASN_36994_NGA,ASN_36994_AGO,ASN_36968_ZAF,ASN_32437_ZAF,ASN_37049_ZAF"},{"id":"IXP_143","name":"Kenya Internet Exchange Point","country":"KEN","latitude":-0.8986580761487751,"longitude":35.43870505057771,"customers":"ASN_15399_KEN,ASN_15399_TZA,ASN_15399_UGA,ASN_15399_NGA,ASN_36866_KEN,ASN_15808_KEN,ASN_12455_KEN,ASN_33771_KEN,ASN_36914_KEN,ASN_25568_KEN,ASN_12556_KEN,ASN_12556_UGA,ASN_36926_KEN,ASN_36915_KEN,ASN_36948_KEN,ASN_30844_ZMB,ASN_30844_MUS,ASN_30844_TZA,ASN_30844_KEN,ASN_30844_ZWE,ASN_30844_UGA,ASN_30844_ZAF,ASN_30844_RWA,ASN_30844_COD,ASN_25818_ZAF,ASN_25818_KEN,ASN_42_TUN,ASN_42_ZAF,ASN_37109_KEN,ASN_3491_ZAF,ASN_3491_TZA,ASN_3491_KEN,ASN_3491_MOZ,ASN_3491_ZMB,ASN_3491_TUN,ASN_37063_UGA,ASN_8075_ZAF,ASN_16509_ZAF,ASN_15133_ZAF,ASN_16637_ZAF,ASN_16637_NAM,ASN_16637_LBR,ASN_16637_BWA,ASN_16637_ZMB,ASN_16637_MUS,ASN_9129_KEN"},{"id":"IXP_206","name":"Cape Town Internet Exchange","country":"ZAF","latitude":-33.64003889459241,"longitude":19.833615007931613,"customers":"ASN_3741_ZAF,ASN_3741_SYC,ASN_11845_ZAF,ASN_36937_ZAF,ASN_10474_ZAF,ASN_16637_ZAF,ASN_16637_NAM,ASN_16637_LBR,ASN_16637_BWA,ASN_16637_ZMB,ASN_16637_MUS,ASN_2018_ZAF,ASN_2018_LSO,ASN_15022_ZAF,ASN_32653_ZAF,ASN_37105_ZAF,ASN_30844_ZMB,ASN_30844_MUS,ASN_30844_TZA,ASN_30844_KEN,ASN_30844_ZWE,ASN_30844_UGA,ASN_30844_ZAF,ASN_30844_RWA,ASN_30844_COD,ASN_22355_ZAF,ASN_20940_ZAF,ASN_42_TUN,ASN_42_ZAF,ASN_33762_ZAF,ASN_36874_ZAF,ASN_36943_ZAF,ASN_36916_ZAF,ASN_36916_BEN,ASN_36994_ZAF,ASN_36994_NGA,ASN_36994_AGO,ASN_36968_ZAF,ASN_32437_ZAF,ASN_16509_ZAF,ASN_8075_ZAF,ASN_37049_ZAF"},{"id":"IXP_479","name":"Kinshasa Internet Exchange","country":"COD","latitude":-5.126025803302349,"longitude":15.175436694423126,"customers":""},{"id":"IXP_248","name":"Uganda Internet Exchange","country":"UGA","latitude":3.559259642735276,"longitude":33.68263185750614,"customers":"ASN_37063_UGA,ASN_36991_UGA,ASN_30844_ZMB,ASN_30844_MUS,ASN_30844_TZA,ASN_30844_KEN,ASN_30844_ZWE,ASN_30844_UGA,ASN_30844_ZAF,ASN_30844_RWA,ASN_30844_COD,ASN_29039_UGA,ASN_20294_UGA,ASN_21491_UGA,ASN_29032_UGA,ASN_37075_UGA,ASN_42_TUN,ASN_42_ZAF,ASN_20940_ZAF,ASN_12491_UGA,ASN_12491_COD,ASN_12491_GAB,ASN_12556_KEN,ASN_12556_UGA"},{"id":"IXP_242","name":"TIX Tanzania - Dar es Salaam","country":"TZA","latitude":-9.416790487010937,"longitude":38.3463102587767,"customers":"ASN_37084_TZA,ASN_32860_TZA,ASN_37045_TZA,ASN_30844_ZMB,ASN_30844_MUS,ASN_30844_TZA,ASN_30844_KEN,ASN_30844_ZWE,ASN_30844_UGA,ASN_30844_ZAF,ASN_30844_RWA,ASN_30844_COD,ASN_20940_ZAF,ASN_36909_TZA,ASN_42_TUN,ASN_42_ZAF,ASN_3741_ZAF,ASN_3741_SYC,ASN_16637_ZAF,ASN_16637_NAM,ASN_16637_LBR,ASN_16637_BWA,ASN_16637_ZMB,ASN_16637_MUS,ASN_11845_ZAF,ASN_6083_ZAF,ASN_36937_ZAF,ASN_10474_ZAF,ASN_6968_ZAF,ASN_2018_ZAF,ASN_2018_LSO,ASN_15022_ZAF,ASN_32653_ZAF,ASN_36874_ZAF,ASN_37105_ZAF,ASN_33763_NAM,ASN_33763_AGO,ASN_33763_MOZ,ASN_22355_ZAF,ASN_44444_DZA,ASN_44444_MUS,ASN_44444_ZAF,ASN_44444_CIV,ASN_44444_AGO,ASN_44444_KEN,ASN_44444_GHA,ASN_44444_LBR,ASN_44444_EGY,ASN_44444_ETH,ASN_44444_TUN,ASN_44444_NGA,ASN_44444_MAR,ASN_36916_ZAF,ASN_36916_BEN,ASN_4809_ZAF,ASN_4809_KEN,ASN_4809_NGA,ASN_36968_ZAF,ASN_32437_ZAF,ASN_37049_ZAF,ASN_3491_ZAF,ASN_3491_TZA,ASN_3491_KEN,ASN_3491_MOZ,ASN_3491_ZMB,ASN_3491_TUN,ASN_3300_ZAF,ASN_21351_REU,ASN_41095_SYC,ASN_8075_ZAF,ASN_25818_ZAF,ASN_25818_KEN,ASN_36994_ZAF,ASN_36994_NGA,ASN_36994_AGO,ASN_37009_NAM,ASN_36944_ZAF,ASN_32934_ZAF,ASN_23889_MUS,ASN_23889_ZAF,ASN_36692_ZAF,ASN_15133_ZAF,ASN_10310_ZAF,ASN_32708_ZAF,ASN_16509_ZAF,ASN_37054_MDG,ASN_36236_ZAF,ASN_714_ZAF,ASN_36951_ZAF,ASN_30999_MUS,ASN_15706_SDN,ASN_15706_TCD,ASN_33788_SDN,ASN_11259_AGO,ASN_37011_AGO,ASN_15399_KEN,ASN_15399_TZA,ASN_15399_UGA,ASN_15399_NGA,ASN_36866_KEN,ASN_15808_KEN,ASN_12455_KEN,ASN_33771_KEN,ASN_36914_KEN,ASN_36915_KEN,ASN_36948_KEN,ASN_37109_KEN,ASN_37063_UGA,ASN_37006_RWA,ASN_37006_MUS,ASN_22822_ZAF,ASN_36932_NGA,ASN_37013_TZA,ASN_33765_TZA,ASN_36965_TZA,ASN_36930_TZA,ASN_37035_TZA"},{"id":"IXP_93","name":"Ghana Internet Exchange","country":"GHA","latitude":6.111859085048267,"longitude":-1.7522438172024966,"customers":"ASN_30986_GHA,ASN_37012_GHA,ASN_33786_GHA,ASN_37103_GHA,ASN_29614_GHA,ASN_29614_BFA,ASN_37030_GHA,ASN_4809_ZAF,ASN_4809_KEN,ASN_4809_NGA,ASN_42_TUN,ASN_42_ZAF,ASN_20940_ZAF"},{"id":"IXP_765","name":"Rwanda Internet exchange","country":"RWA","latitude":-2.1621695071013827,"longitude":29.84707099780236,"customers":"ASN_37006_RWA,ASN_37006_MUS,ASN_30844_ZMB,ASN_30844_MUS,ASN_30844_TZA,ASN_30844_KEN,ASN_30844_ZWE,ASN_30844_UGA,ASN_30844_ZAF,ASN_30844_RWA,ASN_30844_COD,ASN_21174_RWA,ASN_36890_RWA,ASN_42_TUN,ASN_42_ZAF"},{"id":"IXP_932","name":"Angola Internet Exchange","country":"AGO","latitude":-7.011368459672942,"longitude":13.260258258513678,"customers":"ASN_11259_AGO,ASN_17400_AGO,ASN_36881_AGO,ASN_33763_NAM,ASN_33763_AGO,ASN_33763_MOZ,ASN_42_TUN,ASN_42_ZAF"},{"id":"IXP_59","name":"Cairo Internet Exchange","country":"EGY","latitude":29.794680673495677,"longitude":31.781028100160373,"customers":""},{"id":"IXP_367","name":"Botswana Internet Exchange","country":"BWA","latitude":-23.29711408612384,"longitude":24.945940284098963,"customers":""},{"id":"IXP_156","name":"Mauritius Internet Exchange","country":"MUS","latitude":-20.24435,"longitude":57.49175,"customers":"ASN_42_TUN,ASN_42_ZAF,ASN_30999_MUS,ASN_23889_MUS,ASN_23889_ZAF"},{"id":"IXP_547","name":"Zambia Internet Exchange Point","country":"ZMB","latitude":-15.24672358895475,"longitude":26.77076410572714,"customers":""},{"id":"IXP_606","name":"TIX Tanzania - Arusha","country":"TZA","latitude":-3.9235041255252048,"longitude":35.321768255254185,"customers":"ASN_30844_ZMB,ASN_30844_MUS,ASN_30844_TZA,ASN_30844_KEN,ASN_30844_ZWE,ASN_30844_UGA,ASN_30844_ZAF,ASN_30844_RWA,ASN_30844_COD,ASN_37084_TZA,ASN_42_TUN,ASN_42_ZAF,ASN_33765_TZA,ASN_36930_TZA,ASN_36909_TZA"},{"id":"IXP_1312","name":"Sudan Internet Exchange Point","country":"SDN","latitude":19.132070337370873,"longitude":31.895400923060674,"customers":"ASN_15706_SDN,ASN_15706_TCD,ASN_33788_SDN,ASN_36998_SDN,ASN_36972_SDN,ASN_42_TUN,ASN_42_ZAF"},{"id":"IXP_158","name":"Mozambique Internet Exchange","country":"MOZ","latitude":-22.951700952728167,"longitude":33.208027118717176,"customers":"ASN_42235_MOZ,ASN_30619_MOZ,ASN_32017_MOZ,ASN_36865_MOZ,ASN_3491_ZAF,ASN_3491_TZA,ASN_3491_KEN,ASN_3491_MOZ,ASN_3491_ZMB,ASN_3491_TUN"},{"id":"IXP_1029","name":"Malawi IXP","country":"MWI","latitude":-14.804524882574912,"longitude":34.68478061155349,"customers":"ASN_36969_MWI"},{"id":"IXP_593","name":"Middle East Internet eXchange","country":"EGY","latitude":30.620557040852486,"longitude":32.496570315968825,"customers":""},{"id":"IXP_60","name":"Cairo Regional Internet Exchange","country":"EGY","latitude":31.154557121683368,"longitude":31.149688812434732,"customers":""},{"id":"IXP_173","name":"Ibadan Internet Exchange","country":"NGA","latitude":6.48160058024549,"longitude":3.356550652281384,"customers":""},{"id":"IXP_207","name":"Hub","country":"ZAF","latitude":-34.06315614869568,"longitude":19.413603937544845,"customers":""},{"id":"IXP_208","name":"Grahamstown Internet Exchange","country":"ZAF","latitude":-25.98497267813883,"longitude":25.56198260897522,"customers":""},{"id":"IXP_210","name":"South African Internet Exchange","country":"ZAF","latitude":-25.748177032648844,"longitude":27.742566638833914,"customers":""},{"id":"IXP_220","name":"Swaziland Internet Exchange","country":"SWZ","latitude":-26.550914092961367,"longitude":30.69107411981205,"customers":""},{"id":"IXP_364","name":"Zimbabwe Internet Exchange","country":"ZWE","latitude":-16.571398314825508,"longitude":31.340446655544582,"customers":""},{"id":"IXP_545","name":"Ponto de Intercambio Internet Angola","country":"AGO","latitude":-7.682981100589655,"longitude":13.932997337694761,"customers":"ASN_11259_AGO,ASN_17400_AGO,ASN_36881_AGO,ASN_33763_NAM,ASN_33763_AGO,ASN_33763_MOZ,ASN_42_TUN,ASN_42_ZAF"},{"id":"IXP_546","name":"BurundiX Internet Exchange Point","country":"BDI","latitude":-3.761923053235297,"longitude":30.003886798743462,"customers":""},{"id":"IXP_699","name":"Côte d'Ivoire Internet Exchange Point","country":"CIV","latitude":6.6738699518597375,"longitude":-5.0073943839860116,"customers":""},{"id":"IXP_1207","name":"AMS-IX East Africa","country":"KEN","latitude":-3.2394639766042577,"longitude":39.774931698011834,"customers":""},{"id":"IXP_1303","name":"Lesotho Internet Exchange","country":"LSO","latitude":-30.45015152083513,"longitude":28.048899035699414,"customers":""},{"id":"IXP_1474","name":"Tunisian Internet Exchange Point","country":"TUN","latitude":36.53138495155294,"longitude":8.900548629843534,"customers":"ASN_2609_TUN"},{"id":"IXP_1887","name":"Gabon Internet Exchange","country":"GAB","latitude":0.8113325166353589,"longitude":10.811690614618202,"customers":"ASN_16058_GAB,ASN_42_TUN,ASN_42_ZAF"},{"id":"IXP_1840","name":"NAPAfrica Durban","country":"ZAF","latitude":-28.821150492461747,"longitude":31.054068998702956,"customers":"ASN_36951_ZAF,ASN_36874_ZAF,ASN_10474_ZAF,ASN_11845_ZAF,ASN_42_TUN,ASN_42_ZAF,ASN_32437_ZAF,ASN_36916_ZAF,ASN_36916_BEN,ASN_25818_ZAF,ASN_25818_KEN,ASN_2018_ZAF,ASN_2018_LSO,ASN_36994_ZAF,ASN_36994_NGA,ASN_36994_AGO,ASN_16637_ZAF,ASN_16637_NAM,ASN_16637_LBR,ASN_16637_BWA,ASN_16637_ZMB,ASN_16637_MUS,ASN_22355_ZAF,ASN_33762_ZAF,ASN_3741_ZAF,ASN_3741_SYC,ASN_5713_ZAF,ASN_5713_KEN,ASN_37049_ZAF,ASN_36968_ZAF,ASN_18931_ZAF"},{"id":"IXP_1848","name":"ANGONIX","country":"AGO","latitude":-9.137610804932121,"longitude":12.933230770615772,"customers":"ASN_37011_AGO,ASN_42_TUN,ASN_42_ZAF,ASN_25818_ZAF,ASN_25818_KEN,ASN_17400_AGO,ASN_11845_ZAF,ASN_36936_AGO,ASN_19711_SWZ,ASN_33763_NAM,ASN_33763_AGO,ASN_33763_MOZ,ASN_11259_AGO"},{"id":"IXP_1929","name":"DjIX","country":"DJI","latitude":12.44523729428214,"longitude":42.595130546759805,"customers":""},{"id":"IXP_1839","name":"Burkina Faso IXP","country":"BFA","latitude":11.140412598938942,"longitude":-0.88769794825438,"customers":""},{"id":"IXP_2075","name":"Asteroid Mombasa","country":"KEN","latitude":-3.714023374095713,"longitude":38.51921641060951,"customers":""},{"id":"IXP_2055","name":"Douala IXP","country":"CMR","latitude":5.487851995636458,"longitude":10.512798439428556,"customers":""},{"id":"IXP_1884","name":"Internet Exchange Point of Nigeria - Abuja","country":"NGA","latitude":9.710694699354718,"longitude":5.955588920662487,"customers":"ASN_30998_NGA"},{"id":"IXP_1838","name":"Benin IX","country":"BEN","latitude":7.097353862770495,"longitude":1.8525793669590378,"customers":""},{"id":"IXP_1811","name":"Serrekunda Internet Exchange Point","country":"GMB","latitude":13.440200736461975,"longitude":-16.553663134394505,"customers":"ASN_25250_GMB,ASN_42_TUN,ASN_42_ZAF"},{"id":"IXP_1801","name":"Côte d'Ivoire Internet Exchange Point","country":"CIV","latitude":6.601092534385816,"longitude":-4.3146094821189305,"customers":"ASN_36974_CIV,ASN_36974_NGA,ASN_36974_ZMB,ASN_36974_BWA,ASN_36974_RWA,ASN_29571_CIV"},{"id":"IXP_1924","name":"Mombasa Internet Exchange Point","country":"KEN","latitude":-2.683413384691852,"longitude":39.15982346327129,"customers":"ASN_9129_KEN"},{"id":"IXP_1928","name":"Senegal IX","country":"SEN","latitude":12.807697818251892,"longitude":-16.71412615262409,"customers":"ASN_42_TUN,ASN_42_ZAF"},{"id":"IXP_1993","name":"Harare Internet Exchange","country":"ZWE","latitude":-18.349611821246295,"longitude":30.537367879717756,"customers":"ASN_30844_ZMB,ASN_30844_MUS,ASN_30844_TZA,ASN_30844_KEN,ASN_30844_ZWE,ASN_30844_UGA,ASN_30844_ZAF,ASN_30844_RWA,ASN_30844_COD,ASN_36986_ZWE,ASN_42_TUN,ASN_42_ZAF"},{"id":"IXP_2070","name":"IXP-GUINEE","country":"GIN","latitude":10.165013388105256,"longitude":-13.43763733869991,"customers":""},{"id":"IXP_2019","name":"Mali IXP","country":"MLI","latitude":11.535369772113777,"longitude":-8.44221846894892,"customers":""},{"id":"IXP_1973","name":"Togo Internet Exchange Point","country":"TGO","latitude":9.523467632559322,"longitude":1.180043846823495,"customers":""},{"id":"IXP_1784","name":"Windhoek IXP","country":"NAM","latitude":-22.2932219378728,"longitude":15.637692200135728,"customers":"ASN_33763_NAM,ASN_33763_AGO,ASN_33763_MOZ,ASN_37009_NAM"},{"id":"IXP_1885","name":"Internet Exchange Point of Nigeria - Port Harcourt","country":"NGA","latitude":4.7616928249772545,"longitude":8.18769662994152,"customers":""},{"id":"IXP_1911","name":"Dodoma Internet Exchange Point","country":"TZA","latitude":-6.813042619116805,"longitude":34.131539579193586,"customers":""},{"id":"IXP_1881","name":"Madagascar Global Internet Exchange","country":"MDG","latitude":-19.04899470068191,"longitude":48.84684988269951,"customers":""},{"id":"IXP_2036","name":"Zanzibar Internet Exchange Point","country":"TZA","latitude":-6.393568239415664,"longitude":38.53842557777911,"customers":""},{"id":"IXP_1952","name":"Cameroon Internet Exchange Point","country":"CMR","latitude":4.985274378128782,"longitude":10.756193728160591,"customers":""},{"id":"IXP_1992","name":"Burundi Internet Exchange Point","country":"BDI","latitude":-4.136215373374444,"longitude":29.881020860860957,"customers":"ASN_25429_BDI"},{"id":"IXP_1897","name":"Liberia Internet Exchange Point","country":"LBR","latitude":6.213516707141744,"longitude":-10.559782355019067,"customers":"ASN_37094_LBR"},{"id":"IXP_1912","name":"Mwanza Internet Exchange Point","country":"TZA","latitude":-5.029669344764773,"longitude":33.43476898413182,"customers":""},{"id":"IXP_1541","name":"Congo Brazzaville IX","country":"COG","latitude":-3.56255809989465,"longitude":14.423186628469537,"customers":""},{"id":"IXP_2072","name":"Somali Internet Exchange Point ","country":"SOM","latitude":2.1437124914971575,"longitude":44.4774182807822,"customers":""},{"id":"IXP_2145","name":"Tchad Internet Exchange Point ","country":"TCD","latitude":14.389108955885112,"longitude":14.678030731344917,"customers":""},{"id":"IXP_1909","name":"Lubumbashi Internet Exchange","country":"COD","latitude":-9.3971333084816,"longitude":27.203817381821207,"customers":""},{"id":"IXP_1925","name":"Lesotho Internet Exchange Point","country":"LSO","latitude":-29.316962631324028,"longitude":27.488739586157735,"customers":""},{"id":"IXP_1917","name":"Casablanca Internet Exchange","country":"MAR","latitude":34.201631121636176,"longitude":-6.20175421739706,"customers":""},{"id":"IXP_1805","name":"Enfidha Internet Exchange","country":"TUN","latitude":36.490966809750184,"longitude":10.34983961919954,"customers":""},{"id":"IXP_2068","name":"West African Internet Exchange","country":"NGA","latitude":6.9788580416201595,"longitude":4.257596622283271,"customers":""},{"id":"IXP_1574","name":"CG-IX Pointe-Noire","country":"COG","latitude":-4.2699491394545115,"longitude":11.819366552948134,"customers":""},{"id":"IXP_1708","name":"Algeria Internet Exchange","country":"DZA","latitude":36.32705554991352,"longitude":2.51701750265618,"customers":""},{"id":"IXP_1804","name":"Mbabane Internet Exchange","country":"SWZ","latitude":-26.846376878659722,"longitude":31.729007253569605,"customers":""},{"id":"IXP_1843","name":"Seychelles Internet Exchange Point","country":"SYC","latitude":-4.61764,"longitude":55.44766,"customers":""},{"id":"IXP_1886","name":"Internet Exchange Point of Nigeria - Kano","country":"NGA","latitude":11.290800485427111,"longitude":7.491209559811831,"customers":""},{"id":"IXP_1888","name":"Mauritania IX","country":"MRT","latitude":18.863663072653935,"longitude":-15.761506489927145,"customers":""},{"id":"IXP_1904","name":"RIMIX","country":"MRT","latitude":19.824133291809012,"longitude":-15.645903234639945,"customers":""},{"id":"IXP_1910","name":"Goma Internet Exchange","country":"COD","latitude":-1.6372802002588058,"longitude":28.416947417706105,"customers":""},{"id":"IXP_1921","name":"Niger Internet Exchange","country":"NER","latitude":15.164976815870727,"longitude":1.8449089664445335,"customers":""},{"id":"IXP_1955","name":"Maroc Internet Exchange Point","country":"MAR","latitude":34.43142105893837,"longitude":-5.401568437676744,"customers":""}]