[{"id":"IXP_1306","name":"NAPAfrica Johannesburg","country":"ZAF","latitude":-27.09369215278398,"longitude":28.78777095693866,"customers":"ASN_11744_ZAF,ASN_37187_MWI,ASN_32934_ZAF,ASN_49544_ZAF,ASN_21739_ZAF,ASN_24691_TGO,ASN_37356_ZAF,ASN_7020_ZAF,ASN_54113_ZAF,ASN_37053_ZAF,ASN_33764_ZAF,ASN_33764_MUS,ASN_6968_ZAF,ASN_327826_ZAF,ASN_37596_ZAF,ASN_37271_ZAF,ASN_4134_ZAF,ASN_37153_ZAF,ASN_37153_SYC,ASN_328009_ZAF,ASN_327950_ZAF,ASN_6083_ZAF,ASN_37105_ZAF,ASN_37678_BWA,ASN_29918_ZAF,ASN_22355_ZAF,ASN_37403_ZAF,ASN_37172_ZAF,ASN_37349_TZA,ASN_37622_MUS,ASN_328023_ZAF,ASN_37447_COD,ASN_327907_ZAF,ASN_327983_ZAF,ASN_37183_ZWE,ASN_37183_ZAF,ASN_37183_UGA,ASN_14115_ZAF,ASN_37491_ZAF,ASN_3257_ZAF,ASN_327910_ZAF,ASN_327996_ZAF,ASN_30999_MUS,ASN_36692_ZAF,ASN_21859_ZAF,ASN_21859_NGA,ASN_3300_ZAF,ASN_36919_ZAF,ASN_37168_ZAF,ASN_37675_ZAF,ASN_3067_ZAF,ASN_37007_ZAF,ASN_21351_REU,ASN_15133_ZAF,ASN_37439_ZAF,ASN_10310_ZAF,ASN_328204_ZAF,ASN_328229_ZAF,ASN_37204_ZWE,ASN_328179_ZAF,ASN_37525_ZAF,ASN_22822_ZAF,ASN_327943_ZAF,ASN_37342_MOZ,ASN_37564_ZAF,ASN_54994_ZAF,ASN_137922_ZAF,ASN_327849_ZAF,ASN_37016_ZAF,ASN_327880_ZAF,ASN_327880_NGA,ASN_16509_ZAF,ASN_5713_ZAF,ASN_5713_KEN,ASN_37670_ZAF,ASN_37054_MDG,ASN_37484_ZAF,ASN_327897_ZAF,ASN_328178_ZAF,ASN_37157_ZAF,ASN_327811_ZAF,ASN_10474_ZAF,ASN_327824_ZAF,ASN_15695_MAR,ASN_41095_SYC,ASN_327893_ZAF,ASN_3741_ZAF,ASN_3741_SYC,ASN_36924_COG,ASN_36924_BFA,ASN_36924_CIV,ASN_36924_RWA,ASN_36924_GAB,ASN_36924_TGO,ASN_37720_ZAF,ASN_37658_ZAF,ASN_8075_ZAF,ASN_22572_ZAF,ASN_328137_ZAF,ASN_32653_ZAF,ASN_33763_NAM,ASN_33763_AGO,ASN_33763_MOZ,ASN_37627_ZAF,ASN_36236_ZAF,ASN_37225_ZAF,ASN_44444_EGY,ASN_44444_DZA,ASN_44444_ZAF,ASN_44444_NGA,ASN_44444_TUN,ASN_44444_CIV,ASN_44444_MAR,ASN_44444_GHA,ASN_44444_ETH,ASN_44444_LBR,ASN_44444_AGO,ASN_44444_MUS,ASN_44444_KEN,ASN_328045_ZAF,ASN_37302_ZAF,ASN_328320_ZAF,ASN_37314_ZAF,ASN_37179_ZAF,ASN_327767_ZAF,ASN_27471_ZAF,ASN_37358_ZAF,ASN_714_ZAF,ASN_37315_ZAF,ASN_328306_ZAF,ASN_328306_NGA,ASN_328306_KEN,ASN_37488_ZAF,ASN_36916_ZAF,ASN_36916_BEN,ASN_37680_ZAF,ASN_327754_ZAF,ASN_37028_ZAF,ASN_37236_ZAF,ASN_55256_ZAF,ASN_36951_ZAF,ASN_37254_ZAF,ASN_42_TUN,ASN_42_ZAF,ASN_37497_ZAF,ASN_328262_ZAF,ASN_19551_ZAF,ASN_199524_ZAF,ASN_37239_ZAF,ASN_37239_BDI,ASN_25818_ZAF,ASN_25818_KEN,ASN_328227_ZAF,ASN_36994_ZAF,ASN_36994_AGO,ASN_36994_NGA,ASN_37049_ZAF,ASN_37009_NAM,ASN_1828_ZAF,ASN_37640_ZAF,ASN_37599_ZAF,ASN_328209_ZAF,ASN_16637_ZAF,ASN_16637_NAM,ASN_16637_ZMB,ASN_16637_LBR,ASN_16637_MUS,ASN_16637_BWA,ASN_327926_ZAF,ASN_37479_ZAF,ASN_20940_ZAF,ASN_3356_ZAF,ASN_3356_NGA,ASN_11845_ZAF,ASN_30844_MUS,ASN_30844_ZMB,ASN_30844_ZWE,ASN_30844_TZA,ASN_30844_ZAF,ASN_30844_KEN,ASN_30844_UGA,ASN_30844_COD,ASN_30844_RWA,ASN_2018_ZAF,ASN_2018_LSO,ASN_37618_ZAF,ASN_37650_ZAF,ASN_37653_ZAF,ASN_327693_ZAF,ASN_37451_COG,ASN_37417_ZAF,ASN_10798_ZAF,ASN_37266_ZAF,ASN_36868_MUS,ASN_36944_ZAF,ASN_37662_ZAF,ASN_37662_TZA,ASN_37662_NGA,ASN_37662_ZWE,ASN_37662_DJI,ASN_37662_MUS,ASN_37662_SOM,ASN_37662_KEN,ASN_37402_ZAF,ASN_36937_ZAF,ASN_327745_ZAF,ASN_36985_ZAF,ASN_327733_ZAF,ASN_37457_ZAF,ASN_327923_ZAF,ASN_327751_ZAF,ASN_327698_ZAF,ASN_36874_ZAF,ASN_327750_ZAF,ASN_327750_COD,ASN_327935_ZAF,ASN_37656_ZAF,ASN_327822_ZAF,ASN_327850_ZAF,ASN_32437_ZAF,ASN_2635_ZAF,ASN_23889_MUS,ASN_23889_ZAF,ASN_4809_NGA,ASN_4809_KEN,ASN_4809_ZAF,ASN_328049_ZAF,ASN_328068_ZAF,ASN_328077_ZAF,ASN_328112_ZAF,ASN_328120_ZAF,ASN_29606_ZAF,ASN_37312_ZAF,ASN_36968_ZAF,ASN_328173_ZAF,ASN_328074_ZAF,ASN_37294_MWI,ASN_37199_ZAF,ASN_327960_ZAF,ASN_327966_ZAF,ASN_328032_ZAF,ASN_328038_ZAF,ASN_328024_ZAF,ASN_327982_ZAF,ASN_19711_SWZ,ASN_327872_ZAF,ASN_327987_ZAF,ASN_37542_ZAF,ASN_328039_ZAF,ASN_327908_ZAF,ASN_37035_TZA,ASN_327999_ZAF,ASN_327979_ZAF,ASN_327901_ZAF,ASN_328013_ZAF,ASN_328001_ZAF,ASN_14988_BWA,ASN_14988_CIV,ASN_14988_ZAF,ASN_327812_ZAF,ASN_327889_ZAF,ASN_327991_ZAF,ASN_42473_ZAF,ASN_37468_AGO,ASN_327936_ZAF,ASN_327984_ZAF,ASN_37154_ZMB,ASN_37482_ZAF,ASN_15022_ZAF,ASN_327988_ZAF,ASN_327961_ZAF,ASN_37055_ZAF,ASN_37634_ZAF,ASN_327922_ZAF,ASN_327962_ZAF,ASN_327939_ZAF,ASN_327794_ZAF,ASN_327909_ZAF,ASN_37276_ZAF,ASN_37363_ZAF,ASN_327894_ZAF,ASN_328251_ZAF,ASN_33781_BWA,ASN_37628_ZAF,ASN_327808_ZAF,ASN_327791_ZAF,ASN_37368_ZAF,ASN_327761_ZAF,ASN_3491_TZA,ASN_3491_ZAF,ASN_3491_KEN,ASN_3491_MOZ,ASN_3491_TUN,ASN_3491_ZMB,ASN_37079_ZAF,ASN_37519_ZAF,ASN_327813_NGA,ASN_327813_KEN,ASN_327813_GHA,ASN_327813_ZAF,ASN_327813_SYC,ASN_328057_ZAF,ASN_328051_ZAF,ASN_37549_ZAF,ASN_26106_ZAF,ASN_37150_ZAF,ASN_37100_KEN,ASN_37100_ZAF,ASN_37100_MUS,ASN_37100_TZA,ASN_327782_ZAF,ASN_13335_DJI,ASN_13335_NGA,ASN_13335_ZAF,ASN_13335_MUS,ASN_13335_KEN,ASN_13335_MDG,ASN_13335_TZA,ASN_13335_REU,ASN_13335_AGO,ASN_13335_MAR,ASN_13335_RWA,ASN_37395_BWA,ASN_37523_ZAF,ASN_37652_ZAF,ASN_37673_ZAF,ASN_327804_ZAF,ASN_11179_ZAF,ASN_327892_ZAF,ASN_37399_ZAF,ASN_327737_ZAF,ASN_37546_BWA,ASN_37546_ZAF,ASN_328037_ZAF,ASN_328065_ZAF,ASN_40676_ZAF,ASN_328145_ZAF,ASN_328145_KEN,ASN_327716_BWA,ASN_37317_ZAF,ASN_328176_ZAF,ASN_328146_ZAF,ASN_328164_ZAF,ASN_328125_ZAF,ASN_328144_SWZ,ASN_328114_ZAF,ASN_328036_ZAF,ASN_37002_REU,ASN_61317_ZAF,ASN_61317_MAR,ASN_61317_NGA,ASN_61317_SYC,ASN_61317_UGA,ASN_61317_CIV,ASN_328106_ZAF,ASN_37333_ZAF,ASN_328216_ZAF,ASN_328210_ZAF,ASN_328242_ZAF,ASN_328197_ZAF,ASN_328239_ZAF,ASN_32708_ZAF,ASN_328255_ZAF,ASN_198949_MAR,ASN_198949_MOZ,ASN_37697_MOZ,ASN_328220_ZAF,ASN_328172_ZAF,ASN_328270_ZAF,ASN_328287_ZAF,ASN_328156_ZAF,ASN_37412_ZAF,ASN_328315_ZAF,ASN_37438_ZAF,ASN_328313_ZAF,ASN_328266_ZAF,ASN_328323_ZAF,ASN_328214_ZAF,ASN_62597_ZAF,ASN_61092_ZAF,ASN_57695_ZAF,ASN_327817_ZAF,ASN_328278_ZAF,ASN_328126_TUN,ASN_328126_MAR,ASN_328126_MLI,ASN_60171_GHA,ASN_60171_BFA,ASN_60171_NGA,ASN_60171_MLI,ASN_32398_SWZ,ASN_328170_ZAF,ASN_327896_ZAF,ASN_328237_ZAF,ASN_328275_ZAF"},{"id":"IXP_616","name":"Internet Exchange Point of Nigeria - Lagos","country":"NGA","latitude":7.181159800946889,"longitude":4.398763573486908,"customers":"ASN_42_TUN,ASN_42_ZAF,ASN_327813_NGA,ASN_327813_KEN,ASN_327813_GHA,ASN_327813_ZAF,ASN_327813_SYC,ASN_32934_ZAF,ASN_21859_ZAF,ASN_21859_NGA,ASN_37468_AGO,ASN_13335_DJI,ASN_13335_NGA,ASN_13335_ZAF,ASN_13335_MUS,ASN_13335_KEN,ASN_13335_MDG,ASN_13335_TZA,ASN_13335_REU,ASN_13335_AGO,ASN_13335_MAR,ASN_13335_RWA,ASN_8075_ZAF,ASN_37662_ZAF,ASN_37662_TZA,ASN_37662_NGA,ASN_37662_ZWE,ASN_37662_DJI,ASN_37662_MUS,ASN_37662_SOM,ASN_37662_KEN,ASN_3491_TZA,ASN_3491_ZAF,ASN_3491_KEN,ASN_3491_MOZ,ASN_3491_TUN,ASN_3491_ZMB,ASN_36932_NGA,ASN_36938_NGA,ASN_37286_NGA,ASN_37629_NGA,ASN_37148_NGA,ASN_37148_GHA,ASN_37637_NGA,ASN_37308_NGA,ASN_327981_NGA,ASN_37088_NGA,ASN_328110_NGA,ASN_36920_NGA,ASN_328160_NGA,ASN_328126_TUN,ASN_328126_MAR,ASN_328126_MLI"},{"id":"IXP_1308","name":"NAPAfrica Cape Town","country":"ZAF","latitude":-33.784793749786914,"longitude":19.4086221059955,"customers":"ASN_3491_TZA,ASN_3491_ZAF,ASN_3491_KEN,ASN_3491_MOZ,ASN_3491_TUN,ASN_3491_ZMB,ASN_327822_ZAF,ASN_37105_ZAF,ASN_36994_ZAF,ASN_36994_AGO,ASN_36994_NGA,ASN_42_TUN,ASN_42_ZAF,ASN_11845_ZAF,ASN_327693_ZAF,ASN_37271_ZAF,ASN_37153_ZAF,ASN_37153_SYC,ASN_37239_ZAF,ASN_37239_BDI,ASN_328032_ZAF,ASN_37363_ZAF,ASN_37599_ZAF,ASN_328112_ZAF,ASN_37457_ZAF,ASN_8075_ZAF,ASN_327804_ZAF,ASN_37009_NAM,ASN_37640_ZAF,ASN_36874_ZAF,ASN_16637_ZAF,ASN_16637_NAM,ASN_16637_ZMB,ASN_16637_LBR,ASN_16637_MUS,ASN_16637_BWA,ASN_37100_KEN,ASN_37100_ZAF,ASN_37100_MUS,ASN_37100_TZA,ASN_2018_ZAF,ASN_2018_LSO,ASN_37439_ZAF,ASN_15022_ZAF,ASN_37254_ZAF,ASN_327872_ZAF,ASN_22355_ZAF,ASN_327983_ZAF,ASN_327939_ZAF,ASN_37199_ZAF,ASN_37542_ZAF,ASN_327950_ZAF,ASN_327733_ZAF,ASN_37691_ZAF,ASN_328049_ZAF,ASN_54113_ZAF,ASN_16509_ZAF,ASN_20940_ZAF,ASN_327880_ZAF,ASN_327880_NGA,ASN_37670_ZAF,ASN_327849_ZAF,ASN_327824_ZAF,ASN_328242_ZAF,ASN_328174_ZAF,ASN_328251_ZAF,ASN_328237_ZAF,ASN_328137_ZAF,ASN_32653_ZAF,ASN_63293_ZAF,ASN_10474_ZAF,ASN_328114_ZAF,ASN_328266_ZAF,ASN_327926_ZAF,ASN_37314_ZAF,ASN_37172_ZAF,ASN_37468_AGO,ASN_327754_ZAF,ASN_327991_ZAF,ASN_328013_ZAF,ASN_37236_ZAF,ASN_36924_COG,ASN_36924_BFA,ASN_36924_CIV,ASN_36924_RWA,ASN_36924_GAB,ASN_36924_TGO,ASN_328262_ZAF,ASN_25818_ZAF,ASN_25818_KEN,ASN_327782_ZAF,ASN_37049_ZAF,ASN_13335_DJI,ASN_13335_NGA,ASN_13335_ZAF,ASN_13335_MUS,ASN_13335_KEN,ASN_13335_MDG,ASN_13335_TZA,ASN_13335_REU,ASN_13335_AGO,ASN_13335_MAR,ASN_13335_RWA,ASN_328170_ZAF,ASN_30844_MUS,ASN_30844_ZMB,ASN_30844_ZWE,ASN_30844_TZA,ASN_30844_ZAF,ASN_30844_KEN,ASN_30844_UGA,ASN_30844_COD,ASN_30844_RWA,ASN_327966_ZAF,ASN_37662_ZAF,ASN_37662_TZA,ASN_37662_NGA,ASN_37662_ZWE,ASN_37662_DJI,ASN_37662_MUS,ASN_37662_SOM,ASN_37662_KEN,ASN_54994_ZAF,ASN_37179_ZAF,ASN_36916_ZAF,ASN_36916_BEN,ASN_36943_ZAF,ASN_37225_ZAF,ASN_328214_ZAF,ASN_37479_ZAF,ASN_29606_ZAF,ASN_37312_ZAF,ASN_7020_ZAF,ASN_37053_ZAF,ASN_37315_ZAF,ASN_36898_ZAF,ASN_33763_NAM,ASN_33763_AGO,ASN_33763_MOZ,ASN_37266_ZAF,ASN_37358_ZAF,ASN_3356_ZAF,ASN_3356_NGA,ASN_37497_ZAF,ASN_37628_ZAF,ASN_328009_ZAF,ASN_37150_ZAF,ASN_37399_ZAF,ASN_36968_ZAF,ASN_327698_ZAF,ASN_37417_ZAF,ASN_37652_ZAF,ASN_37656_ZAF,ASN_37333_ZAF,ASN_327772_ZAF,ASN_327750_ZAF,ASN_327750_COD,ASN_327999_ZAF,ASN_327936_ZAF,ASN_327794_ZAF,ASN_3067_ZAF,ASN_61092_ZAF,ASN_327812_ZAF,ASN_328020_ZAF,ASN_328043_NGA,ASN_328043_ZAF,ASN_328065_ZAF,ASN_328045_ZAF,ASN_37678_BWA,ASN_328167_ZAF,ASN_328156_ZAF,ASN_327897_ZAF,ASN_328178_ZAF,ASN_328082_ZAF,ASN_328101_ZAF,ASN_3741_ZAF,ASN_3741_SYC,ASN_327988_ZAF,ASN_328278_ZAF,ASN_37564_ZAF,ASN_328068_ZAF,ASN_328239_ZAF,ASN_327901_ZAF,ASN_328145_ZAF,ASN_328145_KEN,ASN_327907_ZAF,ASN_328210_ZAF,ASN_328275_ZAF,ASN_327987_ZAF,ASN_328038_ZAF,ASN_328260_ZAF,ASN_327996_ZAF,ASN_328216_ZAF,ASN_37482_ZAF,ASN_37680_ZAF,ASN_14115_ZAF,ASN_5713_ZAF,ASN_5713_KEN,ASN_37549_ZAF,ASN_26106_ZAF,ASN_37168_ZAF,ASN_37675_ZAF,ASN_37525_ZAF,ASN_37130_ZAF,ASN_37634_ZAF,ASN_328126_TUN,ASN_328126_MAR,ASN_328126_MLI,ASN_32437_ZAF,ASN_37673_ZAF,ASN_328051_ZAF,ASN_328220_ZAF,ASN_37627_ZAF,ASN_37276_ZAF,ASN_36937_ZAF,ASN_37546_BWA,ASN_37546_ZAF,ASN_327751_ZAF"},{"id":"IXP_209","name":"Johannesburg Internet Exchange","country":"ZAF","latitude":-25.009853762825312,"longitude":29.33073736899182,"customers":"ASN_37474_ZAF,ASN_3741_ZAF,ASN_3741_SYC,ASN_42_TUN,ASN_42_ZAF,ASN_16637_ZAF,ASN_16637_NAM,ASN_16637_ZMB,ASN_16637_LBR,ASN_16637_MUS,ASN_16637_BWA,ASN_328145_ZAF,ASN_328145_KEN,ASN_11845_ZAF,ASN_6083_ZAF,ASN_36937_ZAF,ASN_10474_ZAF,ASN_6968_ZAF,ASN_2018_ZAF,ASN_2018_LSO,ASN_15022_ZAF,ASN_32653_ZAF,ASN_36874_ZAF,ASN_37105_ZAF,ASN_37640_ZAF,ASN_37179_ZAF,ASN_327950_ZAF,ASN_30844_MUS,ASN_30844_ZMB,ASN_30844_ZWE,ASN_30844_TZA,ASN_30844_ZAF,ASN_30844_KEN,ASN_30844_UGA,ASN_30844_COD,ASN_30844_RWA,ASN_33764_ZAF,ASN_33764_MUS,ASN_37271_ZAF,ASN_33763_NAM,ASN_33763_AGO,ASN_33763_MOZ,ASN_327872_ZAF,ASN_22355_ZAF,ASN_37159_ZAF,ASN_37235_ZAF,ASN_37236_ZAF,ASN_327782_ZAF,ASN_328112_ZAF,ASN_37356_ZAF,ASN_37172_ZAF,ASN_44444_EGY,ASN_44444_DZA,ASN_44444_ZAF,ASN_44444_NGA,ASN_44444_TUN,ASN_44444_CIV,ASN_44444_MAR,ASN_44444_GHA,ASN_44444_ETH,ASN_44444_LBR,ASN_44444_AGO,ASN_44444_MUS,ASN_44444_KEN,ASN_37100_KEN,ASN_37100_ZAF,ASN_37100_MUS,ASN_37100_TZA,ASN_328039_ZAF,ASN_37387_ZAF,ASN_37670_ZAF,ASN_61317_ZAF,ASN_61317_MAR,ASN_61317_NGA,ASN_61317_SYC,ASN_61317_UGA,ASN_61317_CIV,ASN_37153_ZAF,ASN_37153_SYC,ASN_37150_ZAF,ASN_37399_ZAF,ASN_13335_DJI,ASN_13335_NGA,ASN_13335_ZAF,ASN_13335_MUS,ASN_13335_KEN,ASN_13335_MDG,ASN_13335_TZA,ASN_13335_REU,ASN_13335_AGO,ASN_13335_MAR,ASN_13335_RWA,ASN_37542_ZAF,ASN_37314_ZAF,ASN_37678_BWA,ASN_36916_ZAF,ASN_36916_BEN,ASN_327979_ZAF,ASN_36968_ZAF,ASN_327966_ZAF,ASN_32437_ZAF,ASN_327849_ZAF,ASN_327962_ZAF,ASN_327733_ZAF,ASN_327991_ZAF,ASN_49544_ZAF,ASN_328137_ZAF,ASN_327813_NGA,ASN_327813_KEN,ASN_327813_GHA,ASN_327813_ZAF,ASN_327813_SYC,ASN_327817_ZAF,ASN_37049_ZAF,ASN_37177_ZAF,ASN_37181_ZAF,ASN_37439_ZAF,ASN_26422_ZAF,ASN_33762_ZAF,ASN_4134_ZAF,ASN_26106_ZAF,ASN_37315_ZAF,ASN_37053_ZAF,ASN_7020_ZAF,ASN_37546_BWA,ASN_37546_ZAF,ASN_22750_ZAF,ASN_37157_ZAF,ASN_37028_ZAF,ASN_37525_ZAF,ASN_37168_ZAF,ASN_327984_ZAF,ASN_37333_ZAF,ASN_36868_MUS,ASN_36994_ZAF,ASN_36994_AGO,ASN_36994_NGA,ASN_37358_ZAF,ASN_37680_ZAF,ASN_37549_ZAF,ASN_328209_ZAF,ASN_37497_ZAF,ASN_327907_ZAF,ASN_37650_ZAF,ASN_327893_ZAF,ASN_715_MUS,ASN_715_EGY,ASN_715_ZAF,ASN_19711_SWZ,ASN_327999_ZAF,ASN_328074_ZAF,ASN_4809_NGA,ASN_4809_KEN,ASN_4809_ZAF,ASN_327987_ZAF,ASN_328176_ZAF,ASN_37317_ZAF,ASN_8075_ZAF,ASN_55256_ZAF,ASN_40676_ZAF"},{"id":"IXP_1362","name":"Durban Internet eXchange","country":"ZAF","latitude":-29.879495276952436,"longitude":29.783486447926784,"customers":"ASN_37668_ZAF,ASN_3741_ZAF,ASN_3741_SYC,ASN_5713_ZAF,ASN_5713_KEN,ASN_20011_ZAF,ASN_42_TUN,ASN_42_ZAF,ASN_328145_ZAF,ASN_328145_KEN,ASN_11845_ZAF,ASN_63293_ZAF,ASN_33762_ZAF,ASN_10474_ZAF,ASN_2018_ZAF,ASN_2018_LSO,ASN_37315_ZAF,ASN_32653_ZAF,ASN_36874_ZAF,ASN_37179_ZAF,ASN_36916_ZAF,ASN_36916_BEN,ASN_37457_ZAF,ASN_328049_ZAF,ASN_327984_ZAF,ASN_37271_ZAF,ASN_36994_ZAF,ASN_36994_AGO,ASN_36994_NGA,ASN_37172_ZAF,ASN_37358_ZAF,ASN_37100_KEN,ASN_37100_ZAF,ASN_37100_MUS,ASN_37100_TZA,ASN_37680_ZAF,ASN_37497_ZAF,ASN_327698_ZAF,ASN_13335_DJI,ASN_13335_NGA,ASN_13335_ZAF,ASN_13335_MUS,ASN_13335_KEN,ASN_13335_MDG,ASN_13335_TZA,ASN_13335_REU,ASN_13335_AGO,ASN_13335_MAR,ASN_13335_RWA,ASN_37314_ZAF,ASN_36968_ZAF,ASN_32437_ZAF,ASN_328024_ZAF,ASN_327805_ZAF,ASN_327849_ZAF,ASN_327987_ZAF,ASN_328262_ZAF,ASN_328146_ZAF,ASN_328137_ZAF,ASN_327922_ZAF,ASN_327761_ZAF,ASN_327817_ZAF,ASN_61092_ZAF,ASN_37049_ZAF,ASN_327693_ZAF,ASN_327935_ZAF,ASN_37519_ZAF,ASN_328285_ZAF,ASN_328051_ZAF,ASN_37016_ZAF,ASN_37177_ZAF,ASN_37181_ZAF"},{"id":"IXP_143","name":"Kenya Internet Exchange Point","country":"KEN","latitude":0.5592566661502081,"longitude":36.04480712119709,"customers":"ASN_15399_KEN,ASN_15399_TZA,ASN_15399_UGA,ASN_15399_NGA,ASN_36866_KEN,ASN_15808_KEN,ASN_12455_KEN,ASN_33771_KEN,ASN_36914_KEN,ASN_25568_KEN,ASN_328089_KEN,ASN_37273_UGA,ASN_12556_KEN,ASN_12556_UGA,ASN_36926_KEN,ASN_36915_KEN,ASN_36948_KEN,ASN_37685_KEN,ASN_37578_KEN,ASN_37684_KEN,ASN_37684_TZA,ASN_37305_KEN,ASN_30844_MUS,ASN_30844_ZMB,ASN_30844_ZWE,ASN_30844_TZA,ASN_30844_ZAF,ASN_30844_KEN,ASN_30844_UGA,ASN_30844_COD,ASN_30844_RWA,ASN_25818_ZAF,ASN_25818_KEN,ASN_327997_KEN,ASN_42_TUN,ASN_42_ZAF,ASN_37027_KEN,ASN_37027_UGA,ASN_37027_TZA,ASN_37109_KEN,ASN_4134_ZAF,ASN_37271_ZAF,ASN_37619_RWA,ASN_328301_KEN,ASN_3491_TZA,ASN_3491_ZAF,ASN_3491_KEN,ASN_3491_MOZ,ASN_3491_TUN,ASN_3491_ZMB,ASN_328271_KEN,ASN_327906_KEN,ASN_37063_UGA,ASN_328014_RWA,ASN_37662_ZAF,ASN_37662_TZA,ASN_37662_NGA,ASN_37662_ZWE,ASN_37662_DJI,ASN_37662_MUS,ASN_37662_SOM,ASN_37662_KEN,ASN_8075_ZAF,ASN_16509_ZAF,ASN_15133_ZAF,ASN_16637_ZAF,ASN_16637_NAM,ASN_16637_ZMB,ASN_16637_LBR,ASN_16637_MUS,ASN_16637_BWA,ASN_9129_KEN"},{"id":"IXP_206","name":"Cape Town Internet Exchange","country":"ZAF","latitude":-33.35688609126931,"longitude":20.254862445352334,"customers":"ASN_37663_ZAF,ASN_3741_ZAF,ASN_3741_SYC,ASN_11845_ZAF,ASN_36937_ZAF,ASN_10474_ZAF,ASN_16637_ZAF,ASN_16637_NAM,ASN_16637_ZMB,ASN_16637_LBR,ASN_16637_MUS,ASN_16637_BWA,ASN_2018_ZAF,ASN_2018_LSO,ASN_15022_ZAF,ASN_32653_ZAF,ASN_37640_ZAF,ASN_37105_ZAF,ASN_37179_ZAF,ASN_327950_ZAF,ASN_30844_MUS,ASN_30844_ZMB,ASN_30844_ZWE,ASN_30844_TZA,ASN_30844_ZAF,ASN_30844_KEN,ASN_30844_UGA,ASN_30844_COD,ASN_30844_RWA,ASN_37199_ZAF,ASN_37271_ZAF,ASN_327872_ZAF,ASN_37333_ZAF,ASN_22355_ZAF,ASN_37236_ZAF,ASN_328112_ZAF,ASN_327907_ZAF,ASN_37153_ZAF,ASN_37153_SYC,ASN_37150_ZAF,ASN_13335_DJI,ASN_13335_NGA,ASN_13335_ZAF,ASN_13335_MUS,ASN_13335_KEN,ASN_13335_MDG,ASN_13335_TZA,ASN_13335_REU,ASN_13335_AGO,ASN_13335_MAR,ASN_13335_RWA,ASN_37542_ZAF,ASN_327849_ZAF,ASN_327991_ZAF,ASN_20940_ZAF,ASN_328237_ZAF,ASN_37177_ZAF,ASN_37181_ZAF,ASN_42_TUN,ASN_42_ZAF,ASN_33762_ZAF,ASN_37315_ZAF,ASN_37053_ZAF,ASN_36874_ZAF,ASN_36943_ZAF,ASN_36916_ZAF,ASN_36916_BEN,ASN_327984_ZAF,ASN_36994_ZAF,ASN_36994_AGO,ASN_36994_NGA,ASN_37356_ZAF,ASN_37358_ZAF,ASN_37100_KEN,ASN_37100_ZAF,ASN_37100_MUS,ASN_37100_TZA,ASN_37680_ZAF,ASN_37497_ZAF,ASN_36968_ZAF,ASN_32437_ZAF,ASN_16509_ZAF,ASN_8075_ZAF,ASN_328009_ZAF,ASN_37049_ZAF"},{"id":"IXP_479","name":"Kinshasa Internet Exchange","country":"COD","latitude":-4.643632429297864,"longitude":13.998129714523332,"customers":""},{"id":"IXP_248","name":"Uganda Internet Exchange","country":"UGA","latitude":2.3202226698837864,"longitude":33.22695870484587,"customers":"ASN_37386_UGA,ASN_37063_UGA,ASN_36991_UGA,ASN_30844_MUS,ASN_30844_ZMB,ASN_30844_ZWE,ASN_30844_TZA,ASN_30844_ZAF,ASN_30844_KEN,ASN_30844_UGA,ASN_30844_COD,ASN_30844_RWA,ASN_328198_UGA,ASN_29039_UGA,ASN_20294_UGA,ASN_21491_UGA,ASN_37113_UGA,ASN_328096_UGA,ASN_29032_UGA,ASN_63293_ZAF,ASN_37075_UGA,ASN_37610_UGA,ASN_37027_KEN,ASN_37027_UGA,ASN_37027_TZA,ASN_327724_UGA,ASN_37679_UGA,ASN_327717_UGA,ASN_42_TUN,ASN_42_ZAF,ASN_327687_UGA,ASN_37273_UGA,ASN_37122_UGA,ASN_37122_ZAF,ASN_37100_KEN,ASN_37100_ZAF,ASN_37100_MUS,ASN_37100_TZA,ASN_20940_ZAF,ASN_12491_UGA,ASN_12491_GAB,ASN_12491_COD,ASN_328015_UGA,ASN_36040_MAR,ASN_12556_KEN,ASN_12556_UGA"},{"id":"IXP_242","name":"TIX Tanzania - Dar es Salaam","country":"TZA","latitude":-10.481076245092098,"longitude":39.55428136195192,"customers":"ASN_37126_TZA,ASN_327844_TZA,ASN_327900_TZA,ASN_327859_TZA,ASN_37100_KEN,ASN_37100_ZAF,ASN_37100_MUS,ASN_37100_TZA,ASN_327795_TZA,ASN_37177_ZAF,ASN_37084_TZA,ASN_32860_TZA,ASN_37419_TZA,ASN_37349_TZA,ASN_37045_TZA,ASN_30844_MUS,ASN_30844_ZMB,ASN_30844_ZWE,ASN_30844_TZA,ASN_30844_ZAF,ASN_30844_KEN,ASN_30844_UGA,ASN_30844_COD,ASN_30844_RWA,ASN_20940_ZAF,ASN_36909_TZA,ASN_37181_ZAF,ASN_42_TUN,ASN_42_ZAF,ASN_37474_ZAF,ASN_3741_ZAF,ASN_3741_SYC,ASN_16637_ZAF,ASN_16637_NAM,ASN_16637_ZMB,ASN_16637_LBR,ASN_16637_MUS,ASN_16637_BWA,ASN_328145_ZAF,ASN_328145_KEN,ASN_11845_ZAF,ASN_6083_ZAF,ASN_36937_ZAF,ASN_10474_ZAF,ASN_6968_ZAF,ASN_2018_ZAF,ASN_2018_LSO,ASN_15022_ZAF,ASN_32653_ZAF,ASN_36874_ZAF,ASN_37105_ZAF,ASN_37640_ZAF,ASN_37179_ZAF,ASN_327950_ZAF,ASN_33764_ZAF,ASN_33764_MUS,ASN_37271_ZAF,ASN_33763_NAM,ASN_33763_AGO,ASN_33763_MOZ,ASN_327872_ZAF,ASN_22355_ZAF,ASN_37159_ZAF,ASN_37235_ZAF,ASN_37236_ZAF,ASN_327782_ZAF,ASN_328112_ZAF,ASN_37356_ZAF,ASN_37172_ZAF,ASN_44444_EGY,ASN_44444_DZA,ASN_44444_ZAF,ASN_44444_NGA,ASN_44444_TUN,ASN_44444_CIV,ASN_44444_MAR,ASN_44444_GHA,ASN_44444_ETH,ASN_44444_LBR,ASN_44444_AGO,ASN_44444_MUS,ASN_44444_KEN,ASN_328039_ZAF,ASN_37387_ZAF,ASN_37670_ZAF,ASN_61317_ZAF,ASN_61317_MAR,ASN_61317_NGA,ASN_61317_SYC,ASN_61317_UGA,ASN_61317_CIV,ASN_37153_ZAF,ASN_37153_SYC,ASN_37150_ZAF,ASN_327999_ZAF,ASN_37399_ZAF,ASN_13335_DJI,ASN_13335_NGA,ASN_13335_ZAF,ASN_13335_MUS,ASN_13335_KEN,ASN_13335_MDG,ASN_13335_TZA,ASN_13335_REU,ASN_13335_AGO,ASN_13335_MAR,ASN_13335_RWA,ASN_37542_ZAF,ASN_37314_ZAF,ASN_37678_BWA,ASN_36916_ZAF,ASN_36916_BEN,ASN_327979_ZAF,ASN_4809_NGA,ASN_4809_KEN,ASN_4809_ZAF,ASN_36968_ZAF,ASN_327966_ZAF,ASN_32437_ZAF,ASN_327849_ZAF,ASN_327962_ZAF,ASN_327733_ZAF,ASN_327991_ZAF,ASN_49544_ZAF,ASN_328137_ZAF,ASN_327813_NGA,ASN_327813_KEN,ASN_327813_GHA,ASN_327813_ZAF,ASN_327813_SYC,ASN_327817_ZAF,ASN_37049_ZAF,ASN_37663_ZAF,ASN_37199_ZAF,ASN_37333_ZAF,ASN_327907_ZAF,ASN_328237_ZAF,ASN_37668_ZAF,ASN_63293_ZAF,ASN_37457_ZAF,ASN_328049_ZAF,ASN_37497_ZAF,ASN_328262_ZAF,ASN_328146_ZAF,ASN_327693_ZAF,ASN_37519_ZAF,ASN_328051_ZAF,ASN_37187_MWI,ASN_3491_TZA,ASN_3491_ZAF,ASN_3491_KEN,ASN_3491_MOZ,ASN_3491_TUN,ASN_3491_ZMB,ASN_328032_ZAF,ASN_327983_ZAF,ASN_327889_ZAF,ASN_42473_ZAF,ASN_3300_ZAF,ASN_37468_AGO,ASN_21351_REU,ASN_37439_ZAF,ASN_327826_ZAF,ASN_327939_ZAF,ASN_37564_ZAF,ASN_327824_ZAF,ASN_327909_ZAF,ASN_327880_ZAF,ASN_327880_NGA,ASN_37363_ZAF,ASN_41095_SYC,ASN_327893_ZAF,ASN_36924_COG,ASN_36924_BFA,ASN_36924_CIV,ASN_36924_RWA,ASN_36924_GAB,ASN_36924_TGO,ASN_328251_ZAF,ASN_8075_ZAF,ASN_37358_ZAF,ASN_327754_ZAF,ASN_37254_ZAF,ASN_37403_ZAF,ASN_25818_ZAF,ASN_25818_KEN,ASN_36994_ZAF,ASN_36994_AGO,ASN_36994_NGA,ASN_37009_NAM,ASN_37599_ZAF,ASN_37618_ZAF,ASN_327804_ZAF,ASN_36944_ZAF,ASN_37662_ZAF,ASN_37662_TZA,ASN_37662_NGA,ASN_37662_ZWE,ASN_37662_DJI,ASN_37662_MUS,ASN_37662_SOM,ASN_37662_KEN,ASN_327698_ZAF,ASN_327750_ZAF,ASN_327750_COD,ASN_32934_ZAF,ASN_2635_ZAF,ASN_23889_MUS,ASN_23889_ZAF,ASN_54113_ZAF,ASN_328164_ZAF,ASN_328114_ZAF,ASN_37680_ZAF,ASN_36692_ZAF,ASN_15133_ZAF,ASN_328242_ZAF,ASN_10310_ZAF,ASN_32708_ZAF,ASN_37697_MOZ,ASN_327767_ZAF,ASN_19551_ZAF,ASN_328220_ZAF,ASN_328270_ZAF,ASN_54994_ZAF,ASN_16509_ZAF,ASN_37054_MDG,ASN_328266_ZAF,ASN_62597_ZAF,ASN_36236_ZAF,ASN_37302_ZAF,ASN_714_ZAF,ASN_57695_ZAF,ASN_328306_ZAF,ASN_328306_NGA,ASN_328306_KEN,ASN_36951_ZAF,ASN_199524_ZAF,ASN_37239_ZAF,ASN_37239_BDI,ASN_1828_ZAF,ASN_327926_ZAF,ASN_60171_GHA,ASN_60171_BFA,ASN_60171_NGA,ASN_60171_MLI,ASN_328170_ZAF,ASN_37451_COG,ASN_327822_ZAF,ASN_30999_MUS,ASN_37691_ZAF,ASN_328174_ZAF,ASN_328013_ZAF,ASN_15706_SDN,ASN_15706_TCD,ASN_33788_SDN,ASN_11259_AGO,ASN_37011_AGO,ASN_37645_AGO,ASN_15399_KEN,ASN_15399_TZA,ASN_15399_UGA,ASN_15399_NGA,ASN_36866_KEN,ASN_15808_KEN,ASN_12455_KEN,ASN_33771_KEN,ASN_36914_KEN,ASN_37273_UGA,ASN_36915_KEN,ASN_36948_KEN,ASN_37578_KEN,ASN_37684_KEN,ASN_37684_TZA,ASN_37305_KEN,ASN_327997_KEN,ASN_37027_KEN,ASN_37027_UGA,ASN_37027_TZA,ASN_37109_KEN,ASN_328271_KEN,ASN_327906_KEN,ASN_37386_UGA,ASN_37063_UGA,ASN_37113_UGA,ASN_328096_UGA,ASN_327687_UGA,ASN_37006_RWA,ASN_37006_MUS,ASN_327707_RWA,ASN_36868_MUS,ASN_327821_MUS,ASN_37204_ZWE,ASN_327796_GAB,ASN_37582_GAB,ASN_37125_NGA,ASN_37613_NGA,ASN_37613_GHA,ASN_37521_NGA,ASN_21859_ZAF,ASN_21859_NGA,ASN_22822_ZAF,ASN_36932_NGA,ASN_37182_TZA,ASN_37013_TZA,ASN_33765_TZA,ASN_36908_TZA,ASN_37133_TZA,ASN_37133_SYC,ASN_36965_TZA,ASN_37101_TZA,ASN_36930_TZA,ASN_37035_TZA,ASN_37362_TZA,ASN_327728_TZA,ASN_327692_TZA,ASN_327885_TZA"},{"id":"IXP_93","name":"Ghana Internet Exchange","country":"GHA","latitude":5.613032757840852,"longitude":-0.9685145710527312,"customers":"ASN_30997_GHA,ASN_327814_GHA,ASN_30986_GHA,ASN_37012_GHA,ASN_33786_GHA,ASN_37103_GHA,ASN_29614_GHA,ASN_29614_BFA,ASN_37087_GHA,ASN_37030_GHA,ASN_37623_GHA,ASN_37613_NGA,ASN_37613_GHA,ASN_327992_GHA,ASN_4809_NGA,ASN_4809_KEN,ASN_4809_ZAF,ASN_42_TUN,ASN_42_ZAF,ASN_20940_ZAF"},{"id":"IXP_765","name":"Rwanda Internet exchange","country":"RWA","latitude":-2.2888322397752887,"longitude":29.60738771263311,"customers":"ASN_21174_RWA,ASN_37006_RWA,ASN_37006_MUS,ASN_37228_RWA,ASN_327707_RWA,ASN_37547_RWA,ASN_36890_RWA,ASN_37124_RWA,ASN_328180_RWA,ASN_30844_MUS,ASN_30844_ZMB,ASN_30844_ZWE,ASN_30844_TZA,ASN_30844_ZAF,ASN_30844_KEN,ASN_30844_UGA,ASN_30844_COD,ASN_30844_RWA,ASN_37100_KEN,ASN_37100_ZAF,ASN_37100_MUS,ASN_37100_TZA,ASN_328014_RWA,ASN_36924_COG,ASN_36924_BFA,ASN_36924_CIV,ASN_36924_RWA,ASN_36924_GAB,ASN_36924_TGO,ASN_37177_ZAF,ASN_37181_ZAF,ASN_22690_RWA,ASN_37619_RWA"},{"id":"IXP_932","name":"Angola Internet Exchange","country":"AGO","latitude":-8.039560159636848,"longitude":14.842165893305193,"customers":"ASN_327775_AGO,ASN_11259_AGO,ASN_17400_AGO,ASN_36881_AGO,ASN_36907_AGO,ASN_37272_AGO,ASN_37081_AGO,ASN_328111_AGO,ASN_37119_AGO,ASN_37384_AGO,ASN_327806_AGO,ASN_33763_NAM,ASN_33763_AGO,ASN_33763_MOZ,ASN_37645_AGO,ASN_42_TUN,ASN_42_ZAF,ASN_327833_AGO"},{"id":"IXP_59","name":"Cairo Internet Exchange","country":"EGY","latitude":29.41780852750351,"longitude":29.9576094559078,"customers":""},{"id":"IXP_367","name":"Botswana Internet Exchange","country":"BWA","latitude":-22.392910117621714,"longitude":26.391604967954382,"customers":"ASN_33781_BWA,ASN_37711_BWA"},{"id":"IXP_156","name":"Mauritius Internet Exchange","country":"MUS","latitude":-20.24435,"longitude":57.49175,"customers":"ASN_42_TUN,ASN_42_ZAF,ASN_36868_MUS,ASN_30999_MUS,ASN_23889_MUS,ASN_23889_ZAF,ASN_51110_REU,ASN_51110_MYT,ASN_37455_MUS,ASN_327821_MUS,ASN_37622_MUS"},{"id":"IXP_547","name":"Zambia Internet Exchange Point","country":"ZMB","latitude":-15.254134103544839,"longitude":27.354262912413212,"customers":""},{"id":"IXP_606","name":"TIX Tanzania - Arusha","country":"TZA","latitude":-4.302923715363589,"longitude":36.62554917777029,"customers":"ASN_30844_MUS,ASN_30844_ZMB,ASN_30844_ZWE,ASN_30844_TZA,ASN_30844_ZAF,ASN_30844_KEN,ASN_30844_UGA,ASN_30844_COD,ASN_30844_RWA,ASN_37084_TZA,ASN_37143_TZA,ASN_42_TUN,ASN_42_ZAF,ASN_327885_TZA,ASN_36908_TZA,ASN_33765_TZA,ASN_37133_TZA,ASN_37133_SYC,ASN_36930_TZA,ASN_36909_TZA"},{"id":"IXP_1312","name":"Sudan Internet Exchange Point","country":"SDN","latitude":14.414649185568688,"longitude":33.77823955454894,"customers":"ASN_15706_SDN,ASN_15706_TCD,ASN_33788_SDN,ASN_36998_SDN,ASN_36972_SDN,ASN_37211_SDN,ASN_42_TUN,ASN_42_ZAF"},{"id":"IXP_158","name":"Mozambique Internet Exchange","country":"MOZ","latitude":-24.890461087006692,"longitude":32.10886664873209,"customers":"ASN_31960_MOZ,ASN_42235_MOZ,ASN_30619_MOZ,ASN_32017_MOZ,ASN_36865_MOZ,ASN_37110_MOZ,ASN_37223_MOZ,ASN_37223_ZAF,ASN_37342_MOZ,ASN_37489_MOZ,ASN_3491_TZA,ASN_3491_ZAF,ASN_3491_KEN,ASN_3491_MOZ,ASN_3491_TUN,ASN_3491_ZMB,ASN_37556_MOZ,ASN_37697_MOZ,ASN_327700_MOZ"},{"id":"IXP_1029","name":"Malawi IXP","country":"MWI","latitude":-15.396761935565168,"longitude":34.5687176011938,"customers":"ASN_37215_MWI,ASN_37187_MWI,ASN_36969_MWI,ASN_37098_MWI,ASN_37294_MWI,ASN_37440_MWI,ASN_327941_MWI"},{"id":"IXP_593","name":"Middle East Internet eXchange","country":"EGY","latitude":30.639575904348934,"longitude":30.022867548170524,"customers":""},{"id":"IXP_60","name":"Cairo Regional Internet Exchange","country":"EGY","latitude":30.91535734253574,"longitude":32.737948096079236,"customers":""},{"id":"IXP_173","name":"Ibadan Internet Exchange","country":"NGA","latitude":8.814836365413731,"longitude":3.5153415362301055,"customers":""},{"id":"IXP_207","name":"Hub","country":"ZAF","latitude":-34.090600693669124,"longitude":18.708110314211968,"customers":""},{"id":"IXP_208","name":"Grahamstown Internet Exchange","country":"ZAF","latitude":-30.45294814389252,"longitude":26.877062459461182,"customers":""},{"id":"IXP_210","name":"South African Internet Exchange","country":"ZAF","latitude":-26.672678821208066,"longitude":28.780436582979352,"customers":""},{"id":"IXP_220","name":"Swaziland Internet Exchange","country":"SWZ","latitude":-25.819601376213175,"longitude":31.452645773512867,"customers":""},{"id":"IXP_364","name":"Zimbabwe Internet Exchange","country":"ZWE","latitude":-17.388911332369023,"longitude":31.391215271319208,"customers":""},{"id":"IXP_545","name":"Ponto de Intercambio Internet Angola","country":"AGO","latitude":-8.997997569056405,"longitude":13.347970137163436,"customers":"ASN_327775_AGO,ASN_11259_AGO,ASN_17400_AGO,ASN_36881_AGO,ASN_36907_AGO,ASN_37272_AGO,ASN_37081_AGO,ASN_328111_AGO,ASN_37119_AGO,ASN_37384_AGO,ASN_327806_AGO,ASN_33763_NAM,ASN_33763_AGO,ASN_33763_MOZ,ASN_37645_AGO,ASN_42_TUN,ASN_42_ZAF,ASN_327833_AGO"},{"id":"IXP_546","name":"BurundiX Internet Exchange Point","country":"BDI","latitude":-3.936583427032653,"longitude":29.3686836569314,"customers":""},{"id":"IXP_699","name":"Côte d'Ivoire Internet Exchange Point","country":"CIV","latitude":6.1458850266530956,"longitude":-4.524433620065004,"customers":""},{"id":"IXP_1207","name":"AMS-IX East Africa","country":"KEN","latitude":-1.7713919978331845,"longitude":38.77886131742748,"customers":""},{"id":"IXP_1303","name":"Lesotho Internet Exchange","country":"LSO","latitude":-29.1628540060159,"longitude":27.856080705470827,"customers":""},{"id":"IXP_1474","name":"Tunisian Internet Exchange Point","country":"TUN","latitude":35.54506634547171,"longitude":9.934329996557373,"customers":"ASN_5438_TUN,ASN_37177_ZAF,ASN_37181_ZAF,ASN_2609_TUN"},{"id":"IXP_1887","name":"Gabon Internet Exchange","country":"GAB","latitude":-0.1145621135936502,"longitude":10.513229074943279,"customers":"ASN_327796_GAB,ASN_63293_ZAF,ASN_37582_GAB,ASN_36924_COG,ASN_36924_BFA,ASN_36924_CIV,ASN_36924_RWA,ASN_36924_GAB,ASN_36924_TGO,ASN_16058_GAB,ASN_37390_GAB,ASN_42_TUN,ASN_42_ZAF,ASN_37616_GAB"},{"id":"IXP_1840","name":"NAPAfrica Durban","country":"ZAF","latitude":-29.71744964750417,"longitude":29.567820695940668,"customers":"ASN_37179_ZAF,ASN_36951_ZAF,ASN_328145_ZAF,ASN_328145_KEN,ASN_328242_ZAF,ASN_327983_ZAF,ASN_328137_ZAF,ASN_328112_ZAF,ASN_328049_ZAF,ASN_37302_ZAF,ASN_36874_ZAF,ASN_37100_KEN,ASN_37100_ZAF,ASN_37100_MUS,ASN_37100_TZA,ASN_10474_ZAF,ASN_37271_ZAF,ASN_37239_ZAF,ASN_37239_BDI,ASN_11845_ZAF,ASN_37519_ZAF,ASN_327733_ZAF,ASN_42_TUN,ASN_42_ZAF,ASN_37457_ZAF,ASN_32437_ZAF,ASN_327849_ZAF,ASN_327817_ZAF,ASN_328262_ZAF,ASN_327824_ZAF,ASN_63293_ZAF,ASN_37314_ZAF,ASN_327754_ZAF,ASN_37254_ZAF,ASN_36916_ZAF,ASN_36916_BEN,ASN_37497_ZAF,ASN_25818_ZAF,ASN_25818_KEN,ASN_327782_ZAF,ASN_13335_DJI,ASN_13335_NGA,ASN_13335_ZAF,ASN_13335_MUS,ASN_13335_KEN,ASN_13335_MDG,ASN_13335_TZA,ASN_13335_REU,ASN_13335_AGO,ASN_13335_MAR,ASN_13335_RWA,ASN_2018_ZAF,ASN_2018_LSO,ASN_327693_ZAF,ASN_37662_ZAF,ASN_37662_TZA,ASN_37662_NGA,ASN_37662_ZWE,ASN_37662_DJI,ASN_37662_MUS,ASN_37662_SOM,ASN_37662_KEN,ASN_36994_ZAF,ASN_36994_AGO,ASN_36994_NGA,ASN_328068_ZAF,ASN_328024_ZAF,ASN_327901_ZAF,ASN_328146_ZAF,ASN_327999_ZAF,ASN_328114_ZAF,ASN_327996_ZAF,ASN_327987_ZAF,ASN_328285_ZAF,ASN_16637_ZAF,ASN_16637_NAM,ASN_16637_ZMB,ASN_16637_LBR,ASN_16637_MUS,ASN_16637_BWA,ASN_327984_ZAF,ASN_327922_ZAF,ASN_37675_ZAF,ASN_22355_ZAF,ASN_33762_ZAF,ASN_37172_ZAF,ASN_37358_ZAF,ASN_37634_ZAF,ASN_37315_ZAF,ASN_327698_ZAF,ASN_327761_ZAF,ASN_37016_ZAF,ASN_37417_ZAF,ASN_327805_ZAF,ASN_61092_ZAF,ASN_37479_ZAF,ASN_327935_ZAF,ASN_328051_ZAF,ASN_37482_ZAF,ASN_37670_ZAF,ASN_3741_ZAF,ASN_3741_SYC,ASN_5713_ZAF,ASN_5713_KEN,ASN_37564_ZAF,ASN_37168_ZAF,ASN_37680_ZAF,ASN_328220_ZAF,ASN_37150_ZAF,ASN_37049_ZAF,ASN_37599_ZAF,ASN_37673_ZAF,ASN_36968_ZAF,ASN_18931_ZAF"},{"id":"IXP_1848","name":"ANGONIX","country":"AGO","latitude":-8.660893666285284,"longitude":13.83099172539228,"customers":"ASN_37468_AGO,ASN_37645_AGO,ASN_37011_AGO,ASN_37119_AGO,ASN_36907_AGO,ASN_42_TUN,ASN_42_ZAF,ASN_327932_AGO,ASN_328111_AGO,ASN_25818_ZAF,ASN_25818_KEN,ASN_327833_AGO,ASN_49544_ZAF,ASN_37603_AGO,ASN_17400_AGO,ASN_11845_ZAF,ASN_36936_AGO,ASN_19711_SWZ,ASN_33763_NAM,ASN_33763_AGO,ASN_33763_MOZ,ASN_11259_AGO,ASN_37366_AGO"},{"id":"IXP_1929","name":"DjIX","country":"DJI","latitude":12.016274373764528,"longitude":42.224141954437655,"customers":""},{"id":"IXP_2075","name":"Asteroid Mombasa","country":"KEN","latitude":-1.6107152590535652,"longitude":39.19413632754019,"customers":""},{"id":"IXP_1839","name":"Burkina Faso IXP","country":"BFA","latitude":14.15126284119707,"longitude":-1.1474309260476523,"customers":""},{"id":"IXP_2055","name":"Douala IXP","country":"CMR","latitude":3.7526841519034324,"longitude":10.613346083222776,"customers":""},{"id":"IXP_1884","name":"Internet Exchange Point of Nigeria - Abuja","country":"NGA","latitude":8.301770585253255,"longitude":5.915925669679248,"customers":""},{"id":"IXP_1811","name":"Serrekunda Internet Exchange Point","country":"GMB","latitude":13.329152659290006,"longitude":-15.982292003550182,"customers":"ASN_327719_GMB,ASN_25250_GMB,ASN_37309_GMB,ASN_37323_GMB,ASN_37503_GMB,ASN_42_TUN,ASN_42_ZAF,ASN_37552_GMB,ASN_328140_GMB,ASN_63293_ZAF"},{"id":"IXP_1801","name":"Côte d'Ivoire Internet Exchange Point","country":"CIV","latitude":7.605289614198194,"longitude":-4.615380863933602,"customers":"ASN_36946_CIV,ASN_36974_CIV,ASN_36974_ZMB,ASN_36974_NGA,ASN_36974_BWA,ASN_36974_RWA,ASN_29571_CIV,ASN_37475_CMR,ASN_37190_CIV,ASN_37381_CIV,ASN_36924_COG,ASN_36924_BFA,ASN_36924_CIV,ASN_36924_RWA,ASN_36924_GAB,ASN_36924_TGO"},{"id":"IXP_1838","name":"Benin IX","country":"BEN","latitude":7.1392704822086905,"longitude":1.684764194968594,"customers":"ASN_37090_BEN,ASN_28683_BEN,ASN_37424_BEN,ASN_37136_BEN,ASN_37292_BEN,ASN_36924_COG,ASN_36924_BFA,ASN_36924_CIV,ASN_36924_RWA,ASN_36924_GAB,ASN_36924_TGO"},{"id":"IXP_1928","name":"Senegal IX","country":"SEN","latitude":13.95047074423809,"longitude":-16.817428162958652,"customers":"ASN_42_TUN,ASN_42_ZAF"},{"id":"IXP_2070","name":"IXP-GUINEE","country":"GIN","latitude":12.021691229334273,"longitude":-12.319092698906946,"customers":""},{"id":"IXP_1973","name":"Togo Internet Exchange Point","country":"TGO","latitude":6.96016101954926,"longitude":1.161397737232662,"customers":""},{"id":"IXP_2019","name":"Mali IXP","country":"MLI","latitude":14.752539884863511,"longitude":-7.6916220812115155,"customers":""},{"id":"IXP_1924","name":"Mombasa Internet Exchange Point","country":"KEN","latitude":-1.0674725998968126,"longitude":40.47773170063715,"customers":"ASN_9129_KEN,ASN_37273_UGA"},{"id":"IXP_1993","name":"Harare Internet Exchange","country":"ZWE","latitude":-16.181071501047736,"longitude":30.91729699040476,"customers":"ASN_37204_ZWE,ASN_37183_ZWE,ASN_37183_ZAF,ASN_37183_UGA,ASN_30844_MUS,ASN_30844_ZMB,ASN_30844_ZWE,ASN_30844_TZA,ASN_30844_ZAF,ASN_30844_KEN,ASN_30844_UGA,ASN_30844_COD,ASN_30844_RWA,ASN_37184_ZWE,ASN_36986_ZWE,ASN_37123_ZWE,ASN_42_TUN,ASN_42_ZAF"},{"id":"IXP_1784","name":"Windhoek IXP","country":"NAM","latitude":-21.0931248279163,"longitude":17.437813887953624,"customers":"ASN_33763_NAM,ASN_33763_AGO,ASN_33763_MOZ,ASN_37009_NAM,ASN_327842_NAM"},{"id":"IXP_1885","name":"Internet Exchange Point of Nigeria - Port Harcourt","country":"NGA","latitude":5.467491284353602,"longitude":6.737168950379326,"customers":""},{"id":"IXP_1911","name":"Dodoma Internet Exchange Point","country":"TZA","latitude":-11.06418197141004,"longitude":35.38561982332217,"customers":""},{"id":"IXP_1881","name":"Madagascar Global Internet Exchange","country":"MDG","latitude":-17.978817075147234,"longitude":47.350354982903305,"customers":""},{"id":"IXP_2036","name":"Zanzibar Internet Exchange Point","country":"TZA","latitude":-4.755683692072507,"longitude":37.61656147054015,"customers":""},{"id":"IXP_1952","name":"Cameroon Internet Exchange Point","country":"CMR","latitude":4.815220921327021,"longitude":10.395769009348257,"customers":""},{"id":"IXP_1992","name":"Burundi Internet Exchange Point","country":"BDI","latitude":-3.5836432516012002,"longitude":30.113543585797,"customers":"ASN_327798_BDI,ASN_37545_BDI,ASN_25429_BDI,ASN_37429_BDI,ASN_327720_BDI,ASN_37586_BDI,ASN_327799_BDI,ASN_37336_BDI"},{"id":"IXP_1897","name":"Liberia Internet Exchange Point","country":"LBR","latitude":6.8149403411362615,"longitude":-10.842926216749895,"customers":"ASN_37094_LBR,ASN_37203_LBR,ASN_37410_LBR,ASN_37410_UGA"},{"id":"IXP_1912","name":"Mwanza Internet Exchange Point","country":"TZA","latitude":-1.974796461194011,"longitude":32.24281499289079,"customers":""},{"id":"IXP_1541","name":"Congo Brazzaville IX","country":"COG","latitude":-3.1417805933271152,"longitude":15.003142715372926,"customers":""},{"id":"IXP_2072","name":"Somali Internet Exchange Point ","country":"SOM","latitude":3.9652381277455584,"longitude":45.84956113309713,"customers":""},{"id":"IXP_1909","name":"Lubumbashi Internet Exchange","country":"COD","latitude":-10.43055271754302,"longitude":26.179138707253685,"customers":""},{"id":"IXP_1917","name":"Casablanca Internet Exchange","country":"MAR","latitude":30.76229598318431,"longitude":-7.10037028056394,"customers":""},{"id":"IXP_1805","name":"Enfidha Internet Exchange","country":"TUN","latitude":36.02404003667313,"longitude":9.768384201260732,"customers":""},{"id":"IXP_1925","name":"Lesotho Internet Exchange Point","country":"LSO","latitude":-29.635671937700476,"longitude":27.513410559322633,"customers":""},{"id":"IXP_2145","name":"Tchad Internet Exchange Point ","country":"TCD","latitude":12.449848455911335,"longitude":15.687472104327721,"customers":""},{"id":"IXP_2068","name":"West African Internet Exchange","country":"NGA","latitude":6.605860815886075,"longitude":3.365579607768217,"customers":""},{"id":"IXP_1574","name":"CG-IX Pointe-Noire","country":"COG","latitude":-4.432427641802367,"longitude":12.25073943326899,"customers":""},{"id":"IXP_1708","name":"Algeria Internet Exchange","country":"DZA","latitude":35.740532232441716,"longitude":2.629295633529828,"customers":""},{"id":"IXP_1804","name":"Mbabane Internet Exchange","country":"SWZ","latitude":-26.521098587083415,"longitude":31.16718670710493,"customers":""},{"id":"IXP_1843","name":"Seychelles Internet Exchange Point","country":"SYC","latitude":-4.61764,"longitude":55.44766,"customers":""},{"id":"IXP_1886","name":"Internet Exchange Point of Nigeria - Kano","country":"NGA","latitude":10.10609388238112,"longitude":7.348779355563273,"customers":""},{"id":"IXP_1888","name":"Mauritania IX","country":"MRT","latitude":19.10667690818592,"longitude":-14.736983462104313,"customers":""},{"id":"IXP_1904","name":"RIMIX","country":"MRT","latitude":18.380150569250123,"longitude":-16.04750894515273,"customers":""},{"id":"IXP_1910","name":"Goma Internet Exchange","country":"COD","latitude":-1.4983692039295244,"longitude":28.696025012564867,"customers":""},{"id":"IXP_1921","name":"Niger Internet Exchange","country":"NER","latitude":13.87947382200853,"longitude":3.4901256521425346,"customers":""},{"id":"IXP_1955","name":"Maroc Internet Exchange Point","country":"MAR","latitude":34.746377609094,"longitude":-6.457966560200124,"customers":""}]